,City,Latitude,Longitude,Maximum Temperature,Humidity,Cloudiness,Wind Speed,Country,Date
0,Esperance,-33.87,121.9,17.0,72,90,6.7,AU,2020-11-07 04:50:30
1,Alofi,-19.06,-169.92,26.0,69,24,6.2,NU,2020-11-07 04:46:28
2,Nikolskoye,59.7,30.79,10.0,76,0,9.0,RU,2020-11-07 04:50:30
3,Guerrero Negro,27.98,-114.06,19.36,88,0,3.7,MX,2020-11-07 04:50:30
4,Turukhansk,65.82,87.98,-9.77,96,100,6.51,RU,2020-11-07 04:50:31
5,Hambantota,6.12,81.12,31.0,79,40,4.6,LK,2020-11-07 04:49:51
6,Iqaluit,63.75,-68.51,-18.89,70,20,9.3,CA,2020-11-07 04:50:31
7,Ushuaia,-54.8,-68.3,8.0,61,75,10.3,AR,2020-11-07 04:48:04
8,Yangi Marg`ilon,40.43,71.72,12.0,17,10,2.1,UZ,2020-11-07 04:50:31
9,Busselton,-33.65,115.33,28.33,29,0,3.73,AU,2020-11-07 04:45:35
10,Panjāb,34.39,67.02,8.43,37,0,0.73,AF,2020-11-07 04:50:31
11,Laas,46.62,10.7,5.56,100,5,1.0,IT,2020-11-07 04:46:07
12,Balingasay,16.36,119.86,27.96,81,56,4.66,PH,2020-11-07 04:50:31
13,Caucaia,-3.74,-38.65,27.22,78,75,5.1,BR,2020-11-07 04:50:31
14,Hobart,-42.88,147.33,14.44,47,75,4.6,AU,2020-11-07 04:47:08
15,Kapaa,22.08,-159.32,27.0,74,75,6.7,US,2020-11-07 04:50:32
16,Provideniya,64.38,-173.3,0.62,91,53,9.45,RU,2020-11-07 04:50:32
17,Barentu,15.11,37.59,24.2,42,0,0.51,ER,2020-11-07 04:50:32
18,George Town,5.41,100.34,31.0,74,40,2.6,MY,2020-11-07 04:50:32
19,Ulaangom,49.98,92.07,2.28,76,90,1.26,MN,2020-11-07 04:50:32
20,Port Elizabeth,-33.92,25.57,14.0,93,0,1.5,ZA,2020-11-07 04:45:44
21,Tiksi,71.69,128.87,-20.57,93,65,1.3,RU,2020-11-07 04:50:32
22,Bethel,41.37,-73.41,13.89,93,1,2.62,US,2020-11-07 04:50:33
23,Chokurdakh,70.63,147.92,-16.39,94,100,3.89,RU,2020-11-07 04:45:44
24,Ribeira Grande,38.52,-28.7,14.94,69,61,12.69,PT,2020-11-07 04:50:33
25,Praia da Vitória,38.73,-27.07,14.0,100,75,12.05,PT,2020-11-07 04:50:33
26,Nanortalik,60.14,-45.24,1.24,87,100,8.24,GL,2020-11-07 04:50:33
27,Albany,42.6,-73.97,11.67,56,25,1.78,US,2020-11-07 04:50:08
28,Vaini,-21.2,-175.2,26.0,74,20,4.6,TO,2020-11-07 04:45:57
29,Turmalina,-17.29,-42.73,18.24,94,0,0.65,BR,2020-11-07 04:50:33
30,New Norfolk,-42.78,147.06,14.44,46,96,0.89,AU,2020-11-07 04:48:12
31,Hong Kong,22.29,114.16,28.89,54,32,0.89,HK,2020-11-07 04:48:55
32,Pozo Colorado,-23.49,-58.8,22.75,29,0,2.65,PY,2020-11-07 04:50:34
33,Jamestown,42.1,-79.24,12.0,58,1,3.6,US,2020-11-07 04:50:06
34,Pisco,-13.7,-76.22,18.0,82,90,5.1,PE,2020-11-07 04:50:34
35,Polonnaruwa,7.93,81.0,31.54,58,26,3.16,LK,2020-11-07 04:50:34
36,Barrow,71.29,-156.79,1.0,80,90,10.3,US,2020-11-07 04:45:35
37,Hermanus,-34.42,19.23,12.78,83,5,8.07,ZA,2020-11-07 04:50:34
38,Port Moresby,-9.44,147.18,28.0,78,40,5.1,PG,2020-11-07 04:50:34
39,Kāsaragod,12.5,75.0,29.0,74,20,2.6,IN,2020-11-07 04:50:34
40,Foso,5.7,-1.29,22.63,99,85,1.09,GH,2020-11-07 04:50:35
41,Codrington,-38.27,141.97,12.99,63,34,6.27,AU,2020-11-07 04:49:10
42,Pitimbu,-7.47,-34.81,24.0,94,40,2.1,BR,2020-11-07 04:50:35
43,Rikitea,-23.12,-134.97,22.03,70,52,7.31,PF,2020-11-07 04:45:54
44,Ulaanbaatar,47.91,106.88,-4.0,45,0,5.0,MN,2020-11-07 04:48:40
45,Kastamonu Province,41.5,33.67,3.87,88,60,1.37,TR,2020-11-07 04:50:35
46,Clyde River,70.47,-68.59,-13.0,78,90,7.7,CA,2020-11-07 04:50:35
47,Kumul,42.8,93.45,12.13,34,0,2.4,CN,2020-11-07 04:45:45
48,Coquimbo,-29.95,-71.34,12.0,93,1,2.1,CL,2020-11-07 04:48:47
49,Bouna,9.27,-3.0,22.57,75,0,1.89,CI,2020-11-07 04:50:36
50,Saint Anthony,45.02,-93.22,18.33,55,1,7.2,US,2020-11-07 04:47:54
51,Atuona,-9.8,-139.03,25.85,77,84,8.67,PF,2020-11-07 04:50:36
52,Sinegor'ye,62.08,150.48,-15.36,90,100,2.79,RU,2020-11-07 04:50:36
53,Geraldton,-28.77,114.6,27.0,44,0,5.1,AU,2020-11-07 04:50:36
54,Longyearbyen,78.22,15.64,1.0,86,90,6.2,SJ,2020-11-07 04:46:40
55,Kloulklubed,7.04,134.26,29.0,79,90,2.1,PW,2020-11-07 04:50:36
56,Bluff,-46.6,168.33,7.91,84,100,5.09,NZ,2020-11-07 04:50:36
57,East London,-33.02,27.91,16.0,87,40,1.5,ZA,2020-11-07 04:50:37
58,Nouadhibou,20.93,-17.03,21.0,68,59,6.2,MR,2020-11-07 04:50:37
59,Ürümqi,43.8,87.6,7.0,36,0,2.0,CN,2020-11-07 04:47:19
60,Itoman,26.12,127.67,27.78,88,75,0.5,JP,2020-11-07 04:50:37
61,Lebu,-37.62,-73.65,10.79,83,0,8.94,CL,2020-11-07 04:50:37
62,Nizwá,22.93,57.53,24.53,50,48,1.7,OM,2020-11-07 04:49:27
63,Chui,-33.7,-53.46,15.86,93,94,3.05,UY,2020-11-07 04:50:37
64,Henderson,36.04,-114.98,24.0,17,1,6.7,US,2020-11-07 04:47:02
65,Kavaratti,10.57,72.64,29.0,83,40,2.1,IN,2020-11-07 04:50:38
66,Tegul'det,57.31,88.17,1.8,92,100,4.27,RU,2020-11-07 04:50:38
67,Katunino,64.39,40.63,3.0,93,90,3.0,RU,2020-11-07 04:50:38
68,Klaksvík,62.23,-6.59,6.0,75,98,3.1,FO,2020-11-07 04:50:38
69,Qaanaaq,77.48,-69.36,-22.14,78,41,3.47,GL,2020-11-07 04:50:38
70,Egvekinot,66.32,-179.17,-3.9,99,100,1.8,RU,2020-11-07 04:50:38
71,Cabedelo,-6.98,-34.83,24.0,94,40,2.1,BR,2020-11-07 04:50:38
72,Cairns,-16.92,145.77,31.67,55,0,4.6,AU,2020-11-07 04:45:53
73,Punta Arenas,-53.15,-70.92,9.0,66,90,6.2,CL,2020-11-07 04:50:38
74,Mataura,-46.19,168.86,7.61,92,99,1.8,NZ,2020-11-07 04:50:39
75,Inhambane,-23.86,35.38,27.0,88,40,6.2,MZ,2020-11-07 04:50:39
76,Dunedin,-45.87,170.5,10.56,78,90,5.51,NZ,2020-11-07 04:46:09
77,Iskateley,67.68,53.15,1.14,98,100,1.03,RU,2020-11-07 04:50:39
78,Port Montt,-41.47,-72.94,8.0,93,0,2.6,CL,2020-11-07 04:49:19
79,Bud,39.45,-86.18,12.78,76,1,2.76,US,2020-11-07 04:50:40
80,Hilo,19.73,-155.09,26.0,69,1,1.12,US,2020-11-07 04:47:27
81,Cape Town,-33.93,18.42,16.11,93,75,6.2,ZA,2020-11-07 04:50:41
82,Powell River,49.85,-124.54,8.0,60,20,6.2,CA,2020-11-07 04:50:41
83,Margate,51.38,1.39,10.56,81,1,0.45,GB,2020-11-07 04:50:42
84,Tuktoyaktuk,69.45,-133.04,-10.0,92,90,2.6,CA,2020-11-07 04:50:42
85,Puerto Ayora,-0.74,-90.35,20.0,79,0,1.79,EC,2020-11-07 04:50:42
86,Ubari,26.59,12.78,13.63,67,97,2.84,LY,2020-11-07 04:50:42
87,Aklavik,68.22,-135.01,-7.0,72,94,2.1,CA,2020-11-07 04:48:57
88,Husavik,66.04,-17.34,3.0,59,90,6.7,IS,2020-11-07 04:48:29
89,Avarua,-21.21,-159.78,25.0,78,50,2.6,CK,2020-11-07 04:48:17
90,Boyolangu,-8.12,111.89,30.36,58,26,3.4,ID,2020-11-07 04:50:43
91,Saskylakh,71.92,114.08,-20.47,91,87,1.24,RU,2020-11-07 04:50:43
92,Bilibino,68.05,166.44,-15.38,88,100,3.33,RU,2020-11-07 04:48:58
93,Wewak,-3.55,143.63,27.88,81,85,5.67,PG,2020-11-07 04:50:43
94,Vanimo,-2.67,141.3,28.92,71,86,3.91,PG,2020-11-07 04:45:50
95,Norman Wells,65.28,-126.83,-12.0,92,90,1.0,CA,2020-11-07 04:46:18
96,Kaitangata,-46.28,169.85,10.0,71,79,1.79,NZ,2020-11-07 04:50:44
97,Auce,56.46,22.9,7.78,95,13,4.92,LV,2020-11-07 04:50:44
98,Vao,-22.67,167.48,24.22,79,0,5.9,NC,2020-11-07 04:50:44
99,Torbay,47.67,-52.73,12.22,93,90,10.8,CA,2020-11-07 04:50:44
100,Cubará,7.0,-72.11,21.74,80,20,1.46,CO,2020-11-07 04:50:44
101,Butaritari,3.07,172.79,27.46,75,100,6.12,KI,2020-11-07 04:50:44
102,Kharan,28.58,65.42,24.33,16,0,1.11,PK,2020-11-07 04:50:44
103,Gudibanda,13.67,77.7,24.0,88,40,3.6,IN,2020-11-07 04:50:44
104,Kyren,51.68,102.14,-2.23,84,38,0.32,RU,2020-11-07 04:50:45
105,Turangi,-39.0,175.93,22.22,65,85,0.45,NZ,2020-11-07 04:48:56
106,Kargasok,59.06,80.86,3.49,98,100,4.34,RU,2020-11-07 04:50:45
107,Leningradskiy,69.38,178.42,-2.95,97,100,8.35,RU,2020-11-07 04:47:14
108,Portland,45.52,-122.68,7.78,85,74,2.17,US,2020-11-07 04:46:06
109,Traverse City,44.76,-85.62,17.0,59,1,4.6,US,2020-11-07 04:47:15
110,Srednekolymsk,67.45,153.68,-19.88,92,100,2.8,RU,2020-11-07 04:50:45
111,Camacha,33.08,-16.33,19.0,68,40,3.1,PT,2020-11-07 04:50:45
112,Örnsköldsvik,63.29,18.72,8.0,81,18,6.2,SE,2020-11-07 04:49:52
113,Saint-Pierre,-21.34,55.48,26.0,65,0,7.7,RE,2020-11-07 04:50:45
114,Shingū,33.73,135.98,20.0,100,75,1.5,JP,2020-11-07 04:46:02
115,Deputatsky,69.3,139.9,-23.43,92,22,1.09,RU,2020-11-07 04:50:46
116,Taoudenni,22.68,-3.98,24.08,20,78,2.48,ML,2020-11-07 04:50:46
117,Acapulco de Juárez,16.86,-99.89,25.61,83,77,2.58,MX,2020-11-07 04:48:33
118,Sola,-13.88,167.55,27.71,74,84,3.2,VU,2020-11-07 04:50:46
119,Lagoa,39.05,-27.98,15.17,70,40,14.89,PT,2020-11-07 04:50:46
120,Constitución,-35.33,-72.42,12.98,69,0,3.74,CL,2020-11-07 04:50:46
121,Tarakan,3.3,117.63,28.09,73,98,0.87,ID,2020-11-07 04:50:46
122,Arraial do Cabo,-22.97,-42.03,21.07,75,60,3.0,BR,2020-11-07 04:48:04
123,Ahipara,-35.17,173.17,18.32,89,87,6.74,NZ,2020-11-07 04:50:47
124,Campos Belos,-13.04,-46.77,20.37,93,100,1.42,BR,2020-11-07 04:50:47
125,Avera,33.19,-82.53,19.0,93,90,3.1,US,2020-11-07 04:50:47
126,Saint George,37.1,-113.58,22.0,24,1,6.2,US,2020-11-07 04:50:05
127,Devonport,-41.17,146.35,16.67,52,4,1.34,AU,2020-11-07 04:50:47
128,Dalvik,65.97,-18.53,3.0,59,90,6.7,IS,2020-11-07 04:50:47
129,Katsuura,35.13,140.3,21.67,77,75,1.5,JP,2020-11-07 04:46:23
130,Ancud,-41.87,-73.82,7.78,81,99,6.7,CL,2020-11-07 04:46:31
131,Tuatapere,-46.13,167.68,7.14,90,100,3.36,NZ,2020-11-07 04:46:18
132,Cherskiy,68.75,161.3,-14.83,95,83,3.94,RU,2020-11-07 04:50:47
133,Khatanga,71.97,102.5,-20.38,89,0,3.11,RU,2020-11-07 04:50:48
134,Baykit,61.67,96.37,-10.62,92,100,1.92,RU,2020-11-07 04:50:48
135,Thai Binh,20.45,106.33,27.0,54,0,2.1,VN,2020-11-07 04:50:48
136,Ponta do Sol,32.67,-17.1,17.78,63,20,2.6,PT,2020-11-07 04:50:48
137,Abdulino,53.7,53.67,3.91,89,100,3.81,RU,2020-11-07 04:50:48
138,Carnarvon,-24.87,113.63,25.0,69,90,8.7,AU,2020-11-07 04:49:11
139,Mocuba,-16.84,36.99,29.09,34,97,3.12,MZ,2020-11-07 04:50:48
140,Tual,-5.67,132.75,28.44,73,38,5.72,ID,2020-11-07 04:47:33
141,Bambous Virieux,-20.34,57.76,25.56,69,75,5.1,MU,2020-11-07 04:49:01
142,Bredasdorp,-34.53,20.04,11.0,87,22,3.1,ZA,2020-11-07 04:50:49
143,Souillac,-20.52,57.52,25.0,69,75,5.1,MU,2020-11-07 04:50:49
144,Kumbo,6.2,10.67,14.54,81,74,1.81,CM,2020-11-07 04:50:49
145,Kaa-Khem,51.68,94.73,0.57,92,99,1.3,RU,2020-11-07 04:50:49
146,Plettenberg Bay,-34.05,23.37,16.82,73,67,1.26,ZA,2020-11-07 04:50:49
147,Nyagan,62.14,65.39,1.58,97,100,2.08,RU,2020-11-07 04:50:49
148,Kiryat Gat,31.61,34.76,16.67,79,0,1.85,IL,2020-11-07 04:50:49
149,Hithadhoo,-0.6,73.08,28.85,67,89,1.86,MV,2020-11-07 04:50:49
150,Ponta Delgada,37.73,-25.67,15.0,62,75,5.1,PT,2020-11-07 04:50:49
151,Pangnirtung,66.15,-65.71,-11.27,86,100,1.44,CA,2020-11-07 04:46:14
152,Biak,-0.91,122.88,29.43,66,68,2.55,ID,2020-11-07 04:50:50
153,Byron Bay,-28.65,153.62,23.33,60,40,6.7,AU,2020-11-07 04:49:39
154,Airai,-8.93,125.41,27.37,32,0,3.62,TL,2020-11-07 04:50:50
155,Wuda,39.5,106.71,8.99,43,0,4.61,CN,2020-11-07 04:50:50
156,Port Alfred,-33.59,26.89,18.81,59,94,1.85,ZA,2020-11-07 04:50:50
157,Honiara,-9.43,159.95,32.0,59,40,3.6,SB,2020-11-07 04:50:50
158,Lorengau,-2.02,147.27,29.5,73,73,4.86,PG,2020-11-07 04:46:01
159,Te Anau,-45.42,167.72,8.79,77,100,3.17,NZ,2020-11-07 04:50:06
160,Honningsvåg,70.98,25.97,5.61,66,49,12.5,NO,2020-11-07 04:50:51
161,Beringovskiy,63.05,179.32,-0.44,90,75,7.1,RU,2020-11-07 04:50:51
162,Yellowknife,62.46,-114.35,-12.78,92,90,2.6,CA,2020-11-07 04:50:51
163,Duvan,55.7,57.9,2.34,95,100,3.38,RU,2020-11-07 04:50:51
164,Arlit,18.74,7.39,19.49,25,0,3.41,NE,2020-11-07 04:46:01
165,Tupik,54.43,119.93,-6.07,86,99,5.02,RU,2020-11-07 04:50:51
166,San Cristobal,7.77,-72.22,18.95,91,50,0.43,VE,2020-11-07 04:46:04
167,Sabzawār,36.21,57.68,7.0,36,0,5.1,IR,2020-11-07 04:50:51
168,Hirara,24.8,125.28,30.0,74,40,5.1,JP,2020-11-07 04:46:30
169,Acaraú,-2.89,-40.12,26.06,82,100,6.19,BR,2020-11-07 04:50:52
170,Maumere,-8.62,122.21,30.59,58,1,1.58,ID,2020-11-07 04:50:52
171,Asău,46.43,26.4,6.67,92,50,1.63,RO,2020-11-07 04:50:08
172,Urengoy,65.97,78.37,-0.67,99,100,3.95,RU,2020-11-07 04:50:52
173,Puerto Carreño,6.19,-67.49,25.53,89,57,1.54,CO,2020-11-07 04:50:52
174,Mount Isa,-20.73,139.5,36.0,5,14,5.1,AU,2020-11-07 04:50:52
175,Strezhevoy,60.73,77.59,1.0,100,90,4.0,RU,2020-11-07 04:50:52
176,Majene,-3.54,118.97,30.05,62,0,2.26,ID,2020-11-07 04:50:52
177,Mahon,39.89,4.27,19.0,88,61,8.2,ES,2020-11-07 04:50:52
178,Shrīrangapattana,12.41,76.7,25.0,78,40,5.7,IN,2020-11-07 04:50:52
179,Shimoda,34.67,138.95,21.0,83,75,6.7,JP,2020-11-07 04:48:52
180,Hobyo,5.35,48.53,27.22,74,86,5.08,SO,2020-11-07 04:50:53
181,Broken Hill,-31.95,141.43,21.0,32,0,4.6,AU,2020-11-07 04:50:53
182,Ierapetra,35.01,25.74,19.44,71,37,1.79,GR,2020-11-07 04:50:53
183,Tasiilaq,65.61,-37.64,-2.0,79,100,13.9,GL,2020-11-07 04:50:53
184,Kulhudhuffushi,6.62,73.07,28.29,70,93,2.04,MV,2020-11-07 04:50:53
185,Fairbanks,64.84,-147.72,-1.11,92,90,2.41,US,2020-11-07 04:50:53
186,Monrovia,6.3,-10.8,25.72,84,100,2.2,LR,2020-11-07 04:50:53
187,Touros,-5.2,-35.46,24.0,94,40,1.5,BR,2020-11-07 04:50:54
188,Saint Paul Harbor,57.79,-152.41,0.0,79,1,3.1,US,2020-11-07 04:50:01
189,Pevek,69.7,170.31,-7.18,95,100,4.92,RU,2020-11-07 04:50:54
190,Hare Bay,48.85,-54.01,9.0,100,90,3.6,CA,2020-11-07 04:50:54
191,Galesong,-5.32,119.37,31.79,54,11,6.04,ID,2020-11-07 04:50:54
192,Morros,-9.45,-46.3,20.91,95,100,2.23,BR,2020-11-07 04:50:54
193,Amapá,1.0,-52.0,21.84,98,97,0.9,BR,2020-11-07 04:50:54
194,Hammerfest,70.66,23.68,3.0,86,75,11.3,NO,2020-11-07 04:50:54
195,Bandar-e Anzali,37.47,49.46,15.0,100,75,1.02,IR,2020-11-07 04:50:54
196,São Filipe,14.9,-24.5,25.7,79,98,2.36,CV,2020-11-07 04:50:54
197,Naze,28.37,129.48,28.0,88,40,3.6,JP,2020-11-07 04:50:55
198,Tashla,51.77,52.74,5.27,81,99,3.98,RU,2020-11-07 04:50:55
199,Tignère,7.37,12.65,17.61,55,65,0.6,CM,2020-11-07 04:50:55
200,Sawākin,19.11,37.33,27.43,69,54,3.14,SD,2020-11-07 04:50:55
201,Praia,14.92,-23.51,24.0,88,0,4.1,CV,2020-11-07 04:47:13
202,Abbeville,50.1,1.83,6.0,93,0,3.1,FR,2020-11-07 04:50:55
203,Chengde,40.97,117.94,12.74,32,0,9.41,CN,2020-11-07 04:50:55
204,Sehithwa,-20.47,22.72,27.5,16,0,0.97,BW,2020-11-07 04:50:55
205,Bariloche,-41.15,-71.31,11.11,75,0,1.5,AR,2020-11-07 04:47:25
206,Jacareacanga,-6.22,-57.75,23.12,95,78,1.06,BR,2020-11-07 04:50:56
207,Cidreira,-30.18,-50.21,19.37,85,2,7.18,BR,2020-11-07 04:46:54
208,São João del Rei,-21.14,-44.26,15.28,96,30,2.21,BR,2020-11-07 04:50:56
209,Kavieng,-2.57,150.8,29.51,65,84,5.16,PG,2020-11-07 04:50:56
210,Itarema,-2.92,-39.92,26.25,81,100,6.26,BR,2020-11-07 04:50:56
211,Sorong,-0.88,131.25,29.99,69,70,6.4,ID,2020-11-07 04:50:56
212,Nilanga,18.1,76.77,26.08,47,0,5.3,IN,2020-11-07 04:50:56
213,Soe,-9.86,124.28,32.16,24,0,5.87,ID,2020-11-07 04:50:56
214,Castro,-24.79,-50.01,10.31,98,16,2.33,BR,2020-11-07 04:50:57
215,Banda Aceh,5.56,95.32,26.25,78,99,1.94,ID,2020-11-07 04:50:57
216,Minnedosa,50.25,-99.84,-4.0,85,75,5.1,CA,2020-11-07 04:50:57
217,Rawson,-43.3,-65.1,10.55,78,0,4.03,AR,2020-11-07 04:50:09
218,Tura,25.52,90.22,26.53,53,0,0.45,IN,2020-11-07 04:50:57
219,Wagar,16.15,36.2,24.74,64,0,1.76,SD,2020-11-07 04:50:57
220,Cockburn Town,21.46,-71.14,26.65,82,100,10.06,TC,2020-11-07 04:50:57
221,Yafran,32.06,12.53,11.06,94,0,0.2,LY,2020-11-07 04:50:57
222,Måløy,61.94,5.11,10.0,87,100,6.2,NO,2020-11-07 04:50:57
223,Bengkulu,-3.8,102.27,29.3,67,18,4.08,ID,2020-11-07 04:49:39
224,Westport,41.14,-73.36,13.89,87,1,2.6,US,2020-11-07 04:50:11
225,Brae,60.4,-1.35,10.0,87,61,2.6,GB,2020-11-07 04:50:58
226,Saldanha,-33.01,17.94,14.0,93,26,3.1,ZA,2020-11-07 04:48:10
227,Kieta,-6.22,155.63,28.16,74,95,1.5,PG,2020-11-07 04:50:58
228,Weyburn,49.67,-103.85,0.0,75,100,3.1,CA,2020-11-07 04:50:58
229,Krasnosel'kup,65.7,82.47,0.11,98,100,4.54,RU,2020-11-07 04:49:43
230,Kasongo,-4.45,26.67,20.55,99,96,1.41,CD,2020-11-07 04:50:58
231,Launceston,-41.45,147.17,16.67,38,40,4.6,AU,2020-11-07 04:50:58
232,Arrondissement de Vierzon,47.21,2.06,9.44,93,0,0.5,FR,2020-11-07 04:50:58
233,Sindor,62.86,51.89,0.18,97,82,2.67,RU,2020-11-07 04:50:58
234,Polewali,-3.43,119.34,30.9,59,8,2.26,ID,2020-11-07 04:50:59
235,College,64.86,-147.8,-1.11,92,90,2.61,US,2020-11-07 04:50:59
236,Barras,-4.24,-42.29,24.09,85,92,1.33,BR,2020-11-07 04:50:59
237,Smithers,54.78,-127.17,-1.0,74,40,1.5,CA,2020-11-07 04:50:32
238,Saint-Philippe,-21.36,55.77,26.0,65,0,7.7,RE,2020-11-07 04:50:59
239,Bonavista,48.65,-53.11,11.11,100,100,4.6,CA,2020-11-07 04:50:59
240,Ochamchira,42.71,41.47,12.76,72,61,1.99,GE,2020-11-07 04:50:59
241,Antsohihy,-14.88,47.99,28.87,45,87,2.96,MG,2020-11-07 04:50:59
242,Guarapari,-20.67,-40.5,22.0,94,75,2.6,BR,2020-11-07 04:50:59
243,Meadow Lake,34.8,-106.54,16.0,26,75,2.1,US,2020-11-07 04:51:00
244,Abong Mbang,3.98,13.18,19.53,98,100,0.63,CM,2020-11-07 04:51:00
245,Mnogovershinnyy,53.94,139.92,-5.39,95,98,4.44,RU,2020-11-07 04:51:00
246,Lewisporte,49.25,-55.05,9.0,100,90,3.6,CA,2020-11-07 04:51:00
247,Sitka,57.05,-135.33,4.0,86,1,6.7,US,2020-11-07 04:50:44
248,Yārāda,17.65,83.27,29.0,66,20,3.1,IN,2020-11-07 04:51:00
249,Mar del Plata,-38.0,-57.56,15.56,93,0,1.5,AR,2020-11-07 04:51:00
250,Faya,18.39,42.45,13.0,87,0,1.85,SA,2020-11-07 04:51:00
251,Chāndūr Bāzār,21.24,77.75,26.17,31,0,3.39,IN,2020-11-07 04:51:01
252,Mossamedes,-15.2,12.15,21.15,64,43,2.89,AO,2020-11-07 04:51:01
253,Buala,-8.14,159.59,29.17,67,24,1.44,SB,2020-11-07 04:51:01
254,Terskaya,43.72,44.72,5.0,86,90,1.0,RU,2020-11-07 04:51:01
255,Upernavik,72.79,-56.15,-20.46,80,0,5.75,GL,2020-11-07 04:51:01
256,Tochio-honchō,37.47,139.0,13.89,81,98,1.32,JP,2020-11-07 04:51:01
257,Hudson Bay,52.85,-102.38,-2.68,95,98,0.53,CA,2020-11-07 04:51:01
258,San Ramon,37.78,-121.98,11.11,71,90,3.6,US,2020-11-07 04:51:01
259,Solnechnogorsk,56.18,36.98,21.72,86,90,8.0,RU,2020-11-07 04:51:01
260,Shatsk,54.03,41.71,3.3,84,82,6.16,RU,2020-11-07 04:51:02
261,Noumea,-22.28,166.46,30.0,51,20,5.1,NC,2020-11-07 04:49:36
262,Awjilah,29.11,21.29,15.02,76,0,2.87,LY,2020-11-07 04:49:00
263,Ostrovnoy,68.05,39.51,2.7,88,97,9.02,RU,2020-11-07 04:51:02
264,Cap Malheureux,-19.98,57.61,25.56,65,0,4.47,MU,2020-11-07 04:51:02
265,Kajaani,64.23,27.73,6.0,75,0,4.1,FI,2020-11-07 04:51:02
266,Greenville,35.61,-77.37,16.67,100,90,2.18,US,2020-11-07 04:51:02
267,Champerico,14.3,-91.92,20.56,97,100,0.45,GT,2020-11-07 04:51:02
268,Scarborough,54.28,-0.4,7.22,94,59,3.52,GB,2020-11-07 04:51:02
269,Dikson,73.51,80.55,-17.92,89,0,2.89,RU,2020-11-07 04:51:03
270,Broome,42.25,-75.83,13.0,54,1,3.6,US,2020-11-07 04:51:03
271,Sangar,63.92,127.47,-20.37,90,71,2.24,RU,2020-11-07 04:51:03
272,Richards Bay,-28.78,32.04,22.87,79,79,3.66,ZA,2020-11-07 04:48:04
273,Cassilândia,-19.11,-51.73,21.8,43,0,2.18,BR,2020-11-07 04:51:03
274,Riyadh,24.69,46.72,18.0,36,0,1.5,SA,2020-11-07 04:51:02
275,Durusu,41.31,28.68,15.0,66,75,6.7,TR,2020-11-07 04:51:03
276,Kahului,20.89,-156.47,27.0,69,40,7.7,US,2020-11-07 04:51:03
277,Muzhi,65.37,64.67,-0.4,99,97,2.31,RU,2020-11-07 04:49:58
278,Fengzhen,40.44,113.15,5.59,52,0,8.85,CN,2020-11-07 04:51:03
279,Karaton,-6.34,106.1,35.56,70,40,4.6,ID,2020-11-07 04:51:04
280,Talnakh,69.49,88.4,-11.0,78,40,5.0,RU,2020-11-07 04:51:04
281,Vrangel',42.73,133.08,12.53,49,20,6.63,RU,2020-11-07 04:51:04
282,Cabo San Lucas,22.89,-109.91,24.44,82,0,2.21,MX,2020-11-07 04:51:04
283,Severo-Kuril'sk,50.68,156.12,2.27,81,85,2.94,RU,2020-11-07 04:47:56
284,Moranbah,-22.0,148.05,31.55,43,74,8.4,AU,2020-11-07 04:47:10
285,La Ronge,55.1,-105.28,-9.0,85,31,1.0,CA,2020-11-07 04:49:11
286,Prince Rupert,54.32,-130.32,4.0,83,90,2.63,CA,2020-11-07 04:51:04
287,Frankfort,-27.27,28.48,17.93,48,43,1.25,ZA,2020-11-07 04:51:05
288,Berlevåg,70.86,29.09,4.89,70,69,11.4,NO,2020-11-07 04:51:05
289,Port-Gentil,-0.72,8.78,26.39,83,87,5.74,GA,2020-11-07 04:51:05
290,Thompson,55.74,-97.86,-10.0,92,90,3.1,CA,2020-11-07 04:51:05
291,Sabang,5.89,95.32,26.57,79,94,3.28,ID,2020-11-07 04:51:05
292,Bathsheba,13.22,-59.52,27.0,88,75,8.2,BB,2020-11-07 04:51:05
293,Znamenskoye,57.13,73.83,4.52,71,99,4.6,RU,2020-11-07 04:51:05
294,Gladstone,-23.85,151.25,28.0,51,0,6.7,AU,2020-11-07 04:51:05
295,Río Gallegos,-51.62,-69.22,8.0,81,0,2.6,AR,2020-11-07 04:51:05
296,Hachinohe,40.5,141.5,19.0,52,40,9.3,JP,2020-11-07 04:51:06
297,Saquarema,-22.92,-42.51,19.79,77,53,1.75,BR,2020-11-07 04:51:06
298,Nānpāra,27.87,81.5,25.0,44,0,1.34,IN,2020-11-07 04:51:06
299,Castlebar,53.85,-9.3,7.22,9,99,1.91,IE,2020-11-07 04:51:06
300,Lüderitz,-26.65,15.16,15.85,70,0,1.66,NA,2020-11-07 04:48:07
301,Lompoc,34.64,-120.46,12.0,71,1,4.1,US,2020-11-07 04:51:06
302,Prince George,53.92,-122.75,0.0,68,20,2.6,CA,2020-11-07 04:51:06
303,Vigrestad,58.57,5.7,7.22,99,86,0.89,NO,2020-11-07 04:51:06
304,Namanga,-2.54,36.79,18.9,76,100,2.6,KE,2020-11-07 04:51:06
305,Dawlatabad,36.41,64.91,23.27,16,31,1.18,AF,2020-11-07 04:51:07
306,Benguela,-12.58,13.41,24.51,71,89,0.63,AO,2020-11-07 04:51:07
307,Coahuayana Viejo,18.73,-103.68,23.24,84,68,1.34,MX,2020-11-07 04:49:24
308,Rocha,-34.48,-54.33,13.45,97,96,2.07,UY,2020-11-07 04:49:23
309,Sokoni,-6.43,39.55,24.0,88,20,2.23,TZ,2020-11-07 04:51:07
310,Omboué,-1.57,9.26,24.77,92,79,3.42,GA,2020-11-07 04:51:07
311,Şile,41.18,29.61,15.56,57,26,3.13,TR,2020-11-07 04:51:07
312,Ilulissat,69.22,-51.1,-10.0,51,100,9.8,GL,2020-11-07 04:46:37
313,Rehti,22.73,77.43,25.0,36,0,3.6,IN,2020-11-07 04:51:07
314,Hasaki,35.73,140.83,22.22,77,75,1.5,JP,2020-11-07 04:51:08
315,Hualmay,-11.1,-77.61,15.79,85,42,1.74,PE,2020-11-07 04:51:08
316,Baijiantan,45.63,85.18,7.62,48,95,0.83,CN,2020-11-07 04:51:08
317,Faanui,-16.48,-151.75,26.28,80,0,6.27,PF,2020-11-07 04:48:59
318,Vanavara,60.34,102.28,-12.78,93,100,2.7,RU,2020-11-07 04:51:08
319,Intipucá,13.2,-88.05,23.09,93,78,0.97,SV,2020-11-07 04:51:08
320,Dingle,11.0,122.67,25.07,89,100,6.08,PH,2020-11-07 04:51:08
321,Vehari,30.03,72.35,29.01,14,0,1.05,PK,2020-11-07 04:51:08
322,Dicabisagan,17.08,122.42,28.52,74,95,3.39,PH,2020-11-07 04:51:08
323,Sergeevka,53.88,67.42,4.32,66,100,7.28,KZ,2020-11-07 04:51:08
324,Gold Coast,-28.0,153.43,25.0,56,90,7.7,AU,2020-11-07 04:51:09
325,Bemidji,47.47,-94.88,6.0,81,1,1.93,US,2020-11-07 04:51:06
326,Madang,-5.22,145.8,26.16,88,59,5.67,PG,2020-11-07 04:51:09
327,Vardø,70.37,31.11,4.46,75,79,11.33,NO,2020-11-07 04:51:09
328,Port Hardy,50.7,-127.42,6.0,69,75,8.2,CA,2020-11-07 04:51:09
329,Thinadhoo,0.53,72.93,28.51,66,100,0.71,MV,2020-11-07 04:47:33
330,Gweta,-20.18,25.23,28.16,35,38,2.13,BW,2020-11-07 04:51:09
331,Flinders,-34.58,150.86,18.33,61,61,8.19,AU,2020-11-07 04:51:09
332,Obo,5.4,26.49,22.2,89,69,0.88,CF,2020-11-07 04:51:10
333,Churapcha,62.0,132.43,-20.27,88,99,0.75,RU,2020-11-07 04:46:36
334,Isangel,-19.55,169.27,31.0,62,75,1.25,VU,2020-11-07 04:46:52
335,New Bedford,41.64,-70.93,13.89,100,1,4.1,US,2020-11-07 04:51:10
336,Hafizabad,32.07,73.69,26.51,16,0,1.03,PK,2020-11-07 04:51:10
337,Lodja,-3.48,23.43,20.93,95,89,1.43,CD,2020-11-07 04:51:10
338,Havøysund,71.0,24.66,3.0,86,75,11.3,NO,2020-11-07 04:51:10
339,Gēdo,9.02,37.45,13.81,71,35,0.88,ET,2020-11-07 04:51:10
340,Rudnogorsk,57.26,103.75,-11.09,92,70,2.21,RU,2020-11-07 04:51:11
341,Cap-aux-Meules,47.38,-61.86,11.0,81,88,8.2,CA,2020-11-07 04:51:11
342,Mackay,-21.15,149.2,29.0,62,71,6.7,AU,2020-11-07 04:51:11
343,Tutóia,-2.76,-42.27,26.91,79,63,5.43,BR,2020-11-07 04:51:11
344,Tairua,-37.02,175.85,21.67,75,54,3.58,NZ,2020-11-07 04:51:11
345,Manggar,-2.88,108.27,29.1,72,89,3.79,ID,2020-11-07 04:51:11
346,Totness,5.88,-56.32,25.03,90,97,3.76,SR,2020-11-07 04:51:11
347,Eureka,40.8,-124.16,10.0,33,53,0.89,US,2020-11-07 04:51:11
348,Yambio,4.57,28.4,21.29,94,100,1.21,SS,2020-11-07 04:51:12
349,Kampot,10.62,104.18,30.0,70,40,4.1,KH,2020-11-07 04:51:12
350,Chingirlau,51.09,54.08,5.32,80,96,4.25,KZ,2020-11-07 04:51:12
351,Beauceville,46.22,-70.78,14.0,62,74,2.1,CA,2020-11-07 04:51:12
352,Tazovsky,67.47,78.7,-4.22,99,100,2.29,RU,2020-11-07 04:49:34
353,Bol'shoye Selo,57.72,38.93,6.03,83,99,4.82,RU,2020-11-07 04:51:12
354,Kruisfontein,-34.0,24.73,15.56,88,95,0.45,ZA,2020-11-07 04:51:12
355,São José da Coroa Grande,-8.9,-35.15,25.21,86,80,3.93,BR,2020-11-07 04:47:23
356,Waipawa,-41.41,175.52,18.0,88,76,8.2,NZ,2020-11-07 04:51:12
357,Vershino-Darasunskiy,52.35,115.52,-4.7,77,42,5.19,RU,2020-11-07 04:51:13
358,São Sepé,-30.16,-53.57,18.0,82,75,5.1,BR,2020-11-07 04:51:13
359,Mehamn,71.04,27.85,4.36,72,57,11.19,NO,2020-11-07 04:51:13
360,Grindavik,63.84,-22.43,3.0,73,75,6.7,IS,2020-11-07 04:51:13
361,Hamilton,39.18,-84.53,12.78,93,1,1.48,US,2020-11-07 04:50:31
362,Sheboygan,43.73,-87.93,17.22,81,1,2.1,US,2020-11-07 04:51:13
363,Adrar,20.5,-10.07,26.73,29,60,5.08,MR,2020-11-07 04:51:13
364,Ukiah,39.15,-123.21,7.0,81,1,2.1,US,2020-11-07 04:51:13
365,Hondomachi-hondo,32.45,130.2,20.0,94,75,3.1,JP,2020-11-07 04:51:14
366,Antalaha,-14.9,50.28,25.85,68,79,3.8,MG,2020-11-07 04:51:14
367,Baní,18.28,-70.33,25.56,100,97,2.46,DO,2020-11-07 04:51:14
368,Batasan,12.77,120.78,28.54,68,100,0.53,PH,2020-11-07 04:51:14
369,Takoradze,4.88,-1.76,25.42,91,86,3.47,GH,2020-11-07 04:51:14
370,Sanghar,26.05,68.95,19.0,72,0,2.1,PK,2020-11-07 04:51:14
371,Nizhnyaya Tavda,57.67,66.17,1.91,86,100,4.47,RU,2020-11-07 04:51:14
372,Hervey Bay,-25.3,152.85,26.67,57,50,1.34,AU,2020-11-07 04:51:14
373,Grand Gaube,-20.01,57.66,25.56,65,1,4.47,MU,2020-11-07 04:51:14
374,Freienbach,47.21,8.76,7.78,87,90,1.0,CH,2020-11-07 04:51:15
375,Algiers,36.75,3.04,26.0,24,75,4.1,DZ,2020-11-07 04:50:00
376,Tha Rua,14.56,100.72,27.78,66,89,4.47,TH,2020-11-07 04:51:15
377,Lata,40.16,-8.33,13.33,91,49,0.45,PT,2020-11-07 04:50:05
378,Havelock,34.88,-76.9,18.0,93,1,3.6,US,2020-11-07 04:51:15
379,Igarka,67.47,86.58,-12.85,95,100,7.95,RU,2020-11-07 04:51:15
380,Karakol,42.49,78.39,6.92,47,0,0.71,KG,2020-11-07 04:51:15
381,Mkushi,-13.62,29.39,24.92,23,0,4.09,ZM,2020-11-07 04:51:15
382,Fortuna,40.6,-124.16,10.0,100,90,3.1,US,2020-11-07 04:51:15
383,Payo,-3.75,103.64,32.33,55,4,2.42,ID,2020-11-07 04:51:15
384,Sinnamary,5.38,-52.95,25.11,88,100,4.44,GF,2020-11-07 04:51:16
385,Abu Kamal,34.45,40.92,17.73,57,6,2.52,SY,2020-11-07 04:51:16
386,Pedernales,18.04,-71.74,26.01,70,97,0.66,DO,2020-11-07 04:51:16
387,Sur,22.57,59.53,27.0,63,23,2.43,OM,2020-11-07 04:46:26
388,Altayskoye,51.95,85.33,8.51,63,96,1.51,RU,2020-11-07 04:51:16
389,Edd,13.93,41.69,29.51,43,0,6.98,ER,2020-11-07 04:51:16
390,Suntar,62.14,117.63,-16.91,88,99,2.95,RU,2020-11-07 04:51:16
391,Mayumba,-3.43,10.66,24.75,90,100,2.5,GA,2020-11-07 04:51:16
392,Nishihara,26.18,127.76,28.0,94,90,4.1,JP,2020-11-07 04:51:17
393,Bambanglipuro,-7.95,110.28,30.16,63,16,5.2,ID,2020-11-07 04:51:17
394,Anito,12.45,125.29,26.94,88,100,8.52,PH,2020-11-07 04:51:17
395,Namatanai,-3.67,152.43,29.18,66,43,4.33,PG,2020-11-07 04:51:17
396,Lukovetskiy,64.3,41.92,3.0,93,90,3.0,RU,2020-11-07 04:51:17
397,Birao,10.28,22.79,22.15,40,20,2.87,CF,2020-11-07 04:51:17
398,Doctor Arroyo,23.67,-100.18,10.66,80,6,1.15,MX,2020-11-07 04:51:17
399,Khorixas,-20.37,14.97,18.61,38,69,0.63,NA,2020-11-07 04:50:08
400,Palmer,42.16,-72.33,9.0,93,40,2.6,US,2020-11-07 04:51:17
401,Dinghaicun,26.28,119.79,23.0,56,75,8.0,CN,2020-11-07 04:51:18
402,Tres Arroyos,-38.37,-60.28,13.49,92,79,1.55,AR,2020-11-07 04:51:18
403,Mathura,27.5,77.68,28.3,15,0,1.32,IN,2020-11-07 04:51:18
404,Kaeo,-35.1,173.78,20.0,91,71,4.47,NZ,2020-11-07 04:51:18
405,Newport,51.59,-3.0,7.78,92,51,4.5,GB,2020-11-07 04:51:18
406,Şimand,46.43,21.45,2.0,100,74,0.79,RO,2020-11-07 04:51:18
407,Krasnogorskiy,54.6,61.23,5.01,70,100,4.8,RU,2020-11-07 04:51:18
408,Springbok,-29.66,17.89,11.36,84,49,3.31,ZA,2020-11-07 04:51:18
409,Chicama,-7.84,-79.15,15.03,86,17,1.33,PE,2020-11-07 04:51:18
410,Pecos,31.42,-103.49,16.0,55,1,5.1,US,2020-11-07 04:51:18
411,Mānāvadar,21.5,70.13,30.74,25,0,4.73,IN,2020-11-07 04:51:19
412,Krasnovka,48.82,40.09,5.05,81,42,4.45,RU,2020-11-07 04:51:19
413,Alghero,40.56,8.32,12.0,93,0,2.6,IT,2020-11-07 04:51:19
414,Port Lincoln,-34.73,135.87,16.84,62,13,6.61,AU,2020-11-07 04:47:01
415,San Patricio,28.02,-97.52,21.11,93,20,2.6,US,2020-11-07 04:51:19
416,Bartica,6.4,-58.62,24.0,100,40,2.1,GY,2020-11-07 04:51:19
417,Wamba,8.93,8.6,21.79,33,5,1.18,NG,2020-11-07 04:51:19
418,Sopotnica,41.29,21.16,5.05,82,0,1.12,MK,2020-11-07 04:51:19
419,Changli,39.7,119.15,17.46,24,0,9.41,CN,2020-11-07 04:51:19
420,Ridgecrest,35.62,-117.67,13.89,51,12,4.47,US,2020-11-07 04:51:20
421,Huainan,32.63,117.0,22.29,21,0,3.57,CN,2020-11-07 04:51:20
422,Grand Forks,47.94,-97.43,0.0,81,90,7.2,US,2020-11-07 04:51:20
423,Romanovka,51.74,42.75,2.92,84,41,5.23,RU,2020-11-07 04:51:20
424,Kumba,4.64,9.45,21.81,96,82,0.52,CM,2020-11-07 04:51:20
425,Anju,39.62,125.66,16.02,45,0,7.69,KP,2020-11-07 04:51:20
426,Kysyl-Syr,63.9,122.76,-20.01,88,100,2.58,RU,2020-11-07 04:46:31
427,Werda,-25.27,23.28,24.2,26,0,3.2,BW,2020-11-07 04:51:20
428,Golyshmanovo,56.4,68.37,3.05,75,100,6.3,RU,2020-11-07 04:51:20
429,Moen,69.13,18.61,3.0,86,100,5.1,NO,2020-11-07 04:51:21
430,Belmonte,-15.86,-38.88,23.0,94,75,2.06,BR,2020-11-07 04:50:03
431,Minas,-34.38,-55.24,16.0,87,0,2.6,UY,2020-11-07 04:51:21
432,Sobolevo,54.43,31.9,7.74,89,100,7.38,RU,2020-11-07 04:51:21
433,Dali,25.7,100.18,19.91,42,1,0.45,CN,2020-11-07 04:51:21
434,St. George's,12.06,-61.75,28.0,83,20,7.2,GD,2020-11-07 04:51:21
435,Verkhneyarkeyevo,55.45,54.31,3.03,92,98,3.45,RU,2020-11-07 04:51:21
436,Darnétal,49.45,1.15,6.67,100,52,3.1,FR,2020-11-07 04:51:21
437,San Quintín,30.48,-115.95,18.67,80,43,2.64,MX,2020-11-07 04:51:21
438,São João da Barra,-21.64,-41.05,20.65,85,95,3.83,BR,2020-11-07 04:51:22
439,Ambulu,-8.35,113.61,30.53,60,2,3.24,ID,2020-11-07 04:51:22
440,Sokol,59.46,40.12,5.2,87,95,5.14,RU,2020-11-07 04:51:22
441,Amahai,-3.33,128.92,29.2,66,100,3.77,ID,2020-11-07 04:51:22
442,North Bend,43.41,-124.22,10.56,87,90,5.1,US,2020-11-07 04:51:22
443,Nizhniy Kuranakh,58.84,125.49,-11.68,92,99,2.77,RU,2020-11-07 04:51:22
444,Yong’an,39.7,113.69,7.97,44,0,10.9,CN,2020-11-07 04:51:22
445,Iranduba,-3.28,-60.19,26.0,83,0,3.1,BR,2020-11-07 04:51:22
446,Vestmannaeyjar,63.44,-20.27,5.6,67,99,4.93,IS,2020-11-07 04:51:22
447,Plaine Magnien,-20.43,57.65,25.0,69,75,5.1,MU,2020-11-07 04:51:23
448,Ullapool,57.9,-5.16,7.62,79,73,0.1,GB,2020-11-07 04:51:23
449,Arica,-18.48,-70.3,15.06,81,55,0.58,CL,2020-11-07 04:49:47
450,Tautira,-17.73,-149.15,27.0,74,75,4.6,PF,2020-11-07 04:51:23
451,Zhuhai,22.28,113.57,30.0,57,0,7.2,CN,2020-11-07 04:51:23
452,Ust-Kuyga,70.02,135.6,-31.31,85,95,2.23,RU,2020-11-07 04:51:23
453,Diffa,13.32,12.61,20.02,40,53,3.99,NE,2020-11-07 04:51:23
454,Lerwick,60.15,-1.15,10.0,87,63,2.6,GB,2020-11-07 04:51:23
455,Alice Springs,-23.7,133.88,28.0,9,57,5.1,AU,2020-11-07 04:48:19
456,Sandovo,58.46,36.41,7.68,74,100,6.58,RU,2020-11-07 04:51:24
457,Severo-Yeniseyskiy,60.37,93.04,-3.72,98,100,4.06,RU,2020-11-07 04:51:24
458,Riberalta,-10.98,-66.1,25.12,65,100,0.79,BO,2020-11-07 04:51:24
459,Covington,39.08,-84.51,12.78,93,1,1.52,US,2020-11-07 04:51:24
460,Kailua,21.4,-157.74,27.0,74,75,5.7,US,2020-11-07 04:51:24
461,Seabra,-12.42,-41.77,18.88,92,100,2.11,BR,2020-11-07 04:51:24
462,Mushie,-3.02,16.9,20.44,92,96,1.0,CD,2020-11-07 04:46:58
463,Banjar,-8.19,114.97,33.64,45,0,1.06,ID,2020-11-07 04:51:24
464,Soavinandriana,-19.17,46.73,23.47,57,0,1.08,MG,2020-11-07 04:51:24
465,Manta,-0.95,-80.73,22.0,88,90,4.6,EC,2020-11-07 04:49:21
466,Zhigansk,66.77,123.37,-24.43,89,46,1.98,RU,2020-11-07 04:48:55
467,Linjiang,41.81,126.91,10.93,44,15,5.02,CN,2020-11-07 04:49:22
468,Verín,41.94,-7.44,10.0,99,100,1.64,ES,2020-11-07 04:51:25
469,Makakilo City,21.35,-158.09,27.0,65,20,2.1,US,2020-11-07 04:46:29
470,Mahon,39.89,4.27,19.0,88,61,8.2,ES,2020-11-07 04:51:25
471,Tokmak,47.25,35.71,8.79,69,100,4.3,UA,2020-11-07 04:51:25
472,Caceres,39.52,-6.37,12.22,94,100,4.26,ES,2020-11-07 04:51:25
473,Tiarei,-17.53,-149.33,27.0,74,75,4.6,PF,2020-11-07 04:51:25
474,Tshikapa,-6.42,20.8,21.07,90,97,0.77,CD,2020-11-07 04:51:25
475,Agüimes,27.91,-15.45,19.0,77,20,2.6,ES,2020-11-07 04:51:25
476,Jardim,-21.48,-56.14,21.32,45,0,1.07,BR,2020-11-07 04:47:24
477,The Valley,18.22,-63.06,27.0,69,20,3.6,AI,2020-11-07 04:51:26
478,Nzega,-2.48,29.56,16.06,85,93,0.42,RW,2020-11-07 04:51:26
479,Disna,55.57,28.2,6.47,92,21,3.85,BY,2020-11-07 04:51:26
480,Valdemārpils,57.37,22.59,11.0,100,90,3.6,LV,2020-11-07 04:51:26
481,Great Yarmouth,52.61,1.73,10.0,100,0,0.5,GB,2020-11-07 04:51:26
482,Oodweyne,9.41,45.06,23.05,63,65,3.24,SO,2020-11-07 04:51:26
483,Kropotkin,45.44,40.58,8.89,74,93,4.08,RU,2020-11-07 04:51:26
484,Oistins,13.07,-59.53,27.0,88,75,8.2,BB,2020-11-07 04:51:27
485,Trelew,-43.25,-65.31,10.27,76,0,3.71,AR,2020-11-07 04:50:20
486,Sistranda,63.73,8.83,10.0,87,75,14.4,NO,2020-11-07 04:51:27
487,Matara,5.95,80.54,30.77,61,2,4.62,LK,2020-11-07 04:51:27
488,Cascina,43.68,10.5,8.89,100,0,1.5,IT,2020-11-07 04:51:27
489,Wuwei,37.93,102.64,11.69,33,0,1.77,CN,2020-11-07 04:51:27
490,Ulladulla,-35.35,150.47,17.78,48,40,7.7,AU,2020-11-07 04:51:27
491,Assaí,-23.37,-50.84,20.0,56,0,3.6,BR,2020-11-07 04:47:14
492,Karratha,-20.74,116.85,35.12,21,0,9.66,AU,2020-11-07 04:51:27
493,Denpasar,-8.65,115.22,29.4,62,0,3.58,ID,2020-11-07 04:49:04
494,Kourou,5.16,-52.65,24.0,100,90,3.56,GF,2020-11-07 04:51:28
495,Plérin,48.54,-2.78,9.44,94,99,3.13,FR,2020-11-07 04:51:28
496,Sisimiut,66.94,-53.67,-10.47,80,100,5.18,GL,2020-11-07 04:51:28
497,Rapid Valley,44.06,-103.15,12.78,32,1,2.6,US,2020-11-07 04:51:28
498,Zhukovo,55.03,36.74,5.0,86,40,6.0,RU,2020-11-07 04:51:28
499,Gizo Government Station,-8.1,156.84,29.61,67,68,1.56,SB,2020-11-07 04:51:28
500,Palana,59.12,159.97,-3.4,98,99,3.05,RU,2020-11-07 04:51:28
501,Jaena,11.42,122.4,24.14,91,100,1.94,PH,2020-11-07 04:51:29
502,Fécamp,49.76,0.37,8.0,93,33,4.1,FR,2020-11-07 04:51:29
503,Aquiraz,-3.9,-38.39,27.0,78,75,6.2,BR,2020-11-07 04:51:29
504,Moroni,-11.7,43.26,27.0,63,17,1.45,KM,2020-11-07 04:51:29
505,Naberera,-4.2,36.93,18.11,73,99,4.02,TZ,2020-11-07 04:51:29
506,Xicoténcatl,23.02,-98.88,21.67,81,31,1.79,MX,2020-11-07 04:51:29
507,Waingapu,-9.66,120.26,32.24,48,38,4.46,ID,2020-11-07 04:47:20
508,Ihosy,-22.4,46.12,23.19,69,86,2.57,MG,2020-11-07 04:51:29
509,Vila Franca do Campo,37.72,-25.43,15.0,62,75,5.1,PT,2020-11-07 04:51:29
510,Cuamba,-14.8,36.54,25.38,54,68,3.65,MZ,2020-11-07 04:51:29
511,Quelimane,-17.88,36.89,26.0,69,20,3.6,MZ,2020-11-07 04:51:29
512,Keminmaa,65.86,24.82,6.0,87,0,5.7,FI,2020-11-07 04:51:30
513,Kudahuvadhoo,2.67,72.89,28.19,69,36,1.17,MV,2020-11-07 04:51:30
514,Rome,43.21,-75.46,11.11,87,1,1.88,US,2020-11-07 04:38:53
515,Gweru,-19.45,29.82,24.68,42,0,4.02,ZW,2020-11-07 04:51:30
516,Manzhouli,49.6,117.43,-3.33,92,91,9.78,CN,2020-11-07 04:51:30
517,Katherine,-14.47,132.27,37.0,29,40,2.1,AU,2020-11-07 04:51:30
518,Krapivinskiy,55.0,86.81,2.0,74,40,4.0,RU,2020-11-07 04:51:30
519,Punto Fijo,11.7,-70.2,27.38,80,22,7.44,VE,2020-11-07 04:51:30
520,Daşoguz,41.84,59.97,8.0,52,99,3.1,TM,2020-11-07 04:51:28
521,Elizabethtown,37.69,-85.86,9.0,93,1,1.58,US,2020-11-07 04:49:48
522,Saint-Leu,-21.15,55.28,26.0,65,0,7.7,RE,2020-11-07 04:51:31
523,Pouembout,-21.13,164.9,27.13,62,3,3.97,NC,2020-11-07 04:51:31
524,Narsaq,60.92,-46.05,-1.0,86,75,4.1,GL,2020-11-07 04:51:31
525,Dhidhdhoo,6.88,73.1,28.28,70,93,1.56,MV,2020-11-07 04:51:31
526,Mokhsogollokh,61.47,128.92,-14.94,91,100,1.96,RU,2020-11-07 04:51:31
527,Maragogi,-9.01,-35.22,24.91,87,73,3.84,BR,2020-11-07 04:48:57
528,Miraflores,19.22,-98.81,15.0,58,40,3.1,MX,2020-11-07 04:51:31
529,Lavrentiya,65.58,-171.0,0.35,91,15,9.6,RU,2020-11-07 04:46:26
