,City,Latitude,Longitude,Maximum Temperature,Humidity %,Cloudiness %,Wind Speed(mph),Country,Date
0,Villazón,-22.09,-65.59,6.32,87,100,4.56,BO,2020-11-07 21:23:10
1,Bengkulu,-3.8,102.27,24.33,86,90,1.97,ID,2020-11-07 21:21:23
2,Ancud,-41.87,-73.82,17.0,55,0,4.6,CL,2020-11-07 21:23:11
3,Jamestown,42.1,-79.24,19.0,37,1,3.1,US,2020-11-07 21:21:47
4,Hamilton,39.18,-84.53,23.0,33,1,2.1,US,2020-11-07 21:23:11
5,San Patricio,28.02,-97.52,27.78,61,20,6.7,US,2020-11-07 21:21:39
6,Mataura,-46.19,168.86,10.56,57,65,4.47,NZ,2020-11-07 21:21:58
7,Half Moon Bay,37.46,-122.43,16.11,66,1,5.7,US,2020-11-07 21:22:00
8,Cherskiy,68.75,161.3,-15.25,94,100,2.86,RU,2020-11-07 21:21:57
9,Hvide Sande,56.0,8.13,5.0,100,0,1.5,DK,2020-11-07 21:23:12
10,Ushuaia,-54.8,-68.3,16.0,41,75,5.7,AR,2020-11-07 21:21:36
11,Avarua,-21.21,-159.78,25.0,73,99,3.68,CK,2020-11-07 21:22:12
12,Sinnamary,5.38,-52.95,27.36,78,46,6.59,GF,2020-11-07 21:23:12
13,Mar del Plata,-38.0,-57.56,22.0,60,0,1.5,AR,2020-11-07 21:20:53
14,Katangli,51.71,143.23,-5.34,90,29,3.24,RU,2020-11-07 21:23:13
15,Cidreira,-30.18,-50.21,20.58,80,2,6.26,BR,2020-11-07 21:22:06
16,Bosaso,11.28,49.18,23.7,73,35,1.78,SO,2020-11-07 21:23:13
17,Alofi,-19.06,-169.92,26.0,74,75,6.7,NU,2020-11-07 21:22:37
18,Tasiilaq,65.61,-37.64,-3.0,92,80,3.6,GL,2020-11-07 21:23:14
19,Kautokeino,69.01,23.04,-1.21,92,0,12.65,NO,2020-11-07 21:23:14
20,Gorahun,7.47,-11.24,23.82,98,11,1.48,SL,2020-11-07 21:23:14
21,Port Alfred,-33.59,26.89,20.49,90,8,3.01,ZA,2020-11-07 21:21:36
22,Comodoro Rivadavia,-45.87,-67.5,20.0,45,0,6.7,AR,2020-11-07 21:23:14
23,Sioux Lookout,50.1,-91.92,0.0,81,90,1.5,CA,2020-11-07 21:21:11
24,Padang,-0.95,100.35,25.49,78,100,1.56,ID,2020-11-07 21:21:40
25,Saint Anthony,45.02,-93.22,23.33,53,1,5.1,US,2020-11-07 21:23:15
26,Klaksvík,62.23,-6.59,6.0,81,93,4.1,FO,2020-11-07 21:23:15
27,Hermanus,-34.42,19.23,15.56,84,0,3.58,ZA,2020-11-07 21:23:14
28,Salalah,17.02,54.09,24.0,64,0,1.0,OM,2020-11-07 21:23:16
29,Rawson,-43.3,-65.1,19.75,36,97,9.82,AR,2020-11-07 21:23:16
30,Chu,43.6,73.76,12.92,30,100,4.93,KZ,2020-11-07 21:23:16
31,Harper,4.38,-7.72,25.97,86,73,2.54,LR,2020-11-07 21:21:45
32,Kemijärvi,66.71,27.43,0.76,86,0,5.8,FI,2020-11-07 21:23:16
33,Mount Gambier,-37.83,140.77,4.0,93,0,2.1,AU,2020-11-07 21:23:16
34,Busselton,-33.65,115.33,12.78,66,50,1.43,AU,2020-11-07 21:21:42
35,Oksbøl,55.63,8.29,4.0,100,3,1.5,DK,2020-11-07 21:23:17
36,Samarai,-10.62,150.67,27.5,82,12,3.53,PG,2020-11-07 21:23:08
37,Tiksi,71.69,128.87,-22.25,91,0,0.83,RU,2020-11-07 21:23:17
38,Saldanha,-33.01,17.94,16.0,87,0,5.7,ZA,2020-11-07 21:23:17
39,Port Moresby,-9.44,147.18,25.0,88,40,2.6,PG,2020-11-07 21:23:18
40,Tumbagaan,5.37,120.31,26.48,81,95,2.47,PH,2020-11-07 21:23:18
41,Vaini,-21.2,-175.2,26.0,74,20,2.6,TO,2020-11-07 21:21:36
42,Saint Paul Harbor,57.79,-152.41,6.0,81,90,4.6,US,2020-11-07 21:23:18
43,Kuragino,53.9,92.67,0.08,97,50,1.53,RU,2020-11-07 21:23:18
44,Desaguadero,-16.57,-69.04,14.23,36,0,9.49,PE,2020-11-07 21:23:18
45,Barrow,71.29,-156.79,-1.0,92,90,10.3,US,2020-11-07 21:23:19
46,Valle de Allende,26.93,-105.4,25.34,18,0,2.28,MX,2020-11-07 21:23:20
47,Chokurdakh,70.63,147.92,-16.42,95,100,2.55,RU,2020-11-07 21:21:41
48,Carnarvon,-24.87,113.63,21.0,77,75,6.7,AU,2020-11-07 21:23:20
49,Mokobeng,-23.0,27.67,30.51,29,0,2.67,BW,2020-11-07 21:23:20
50,Saint-Louis,16.33,-15.0,34.59,20,0,4.39,SN,2020-11-07 21:23:21
51,Valdivia,-39.81,-73.25,22.0,37,0,4.6,CL,2020-11-07 21:22:03
52,Taoudenni,22.68,-3.98,29.97,14,62,4.97,ML,2020-11-07 21:23:21
53,Bongandanga,1.5,21.05,20.9,93,98,0.41,CD,2020-11-07 21:23:22
54,Hilo,19.73,-155.09,26.0,78,90,3.1,US,2020-11-07 21:23:11
55,Hithadhoo,-0.6,73.08,28.62,71,30,3.61,MV,2020-11-07 21:23:23
56,Rikitea,-23.12,-134.97,21.92,72,42,7.52,PF,2020-11-07 21:22:02
57,Torbay,47.67,-52.73,8.33,81,75,13.9,CA,2020-11-07 21:22:59
58,Ostrovnoy,68.05,39.51,1.8,86,100,8.97,RU,2020-11-07 21:21:50
59,Leh,34.17,77.58,-2.25,61,0,1.54,IN,2020-11-07 21:23:24
60,Sittwe,20.15,92.9,24.74,85,0,2.46,MM,2020-11-07 21:19:36
61,Souillac,-20.52,57.52,23.0,78,75,3.1,MU,2020-11-07 21:23:24
62,Pokosnoye,55.53,101.05,1.47,97,100,2.32,RU,2020-11-07 21:23:24
63,Nikolskoye,59.7,30.79,9.0,81,90,8.0,RU,2020-11-07 21:23:24
64,São Filipe,14.9,-24.5,26.5,76,28,7.18,CV,2020-11-07 21:23:25
65,Sarkand,45.41,79.92,8.82,33,19,3.33,KZ,2020-11-07 21:23:25
66,Hobart,-42.88,147.33,9.44,75,20,4.1,AU,2020-11-07 21:21:45
67,Port-Gentil,-0.72,8.78,26.0,94,75,5.1,GA,2020-11-07 21:23:26
68,Gondanglegi,-7.75,112.01,23.87,83,0,2.71,ID,2020-11-07 21:23:26
69,Paramonga,-10.67,-77.83,18.41,74,21,4.86,PE,2020-11-07 21:23:26
70,Auki,-8.77,160.7,27.95,74,22,1.64,SB,2020-11-07 21:23:26
71,Selenginsk,52.01,106.86,-10.0,85,75,0.83,RU,2020-11-07 21:23:26
72,Port Hardy,50.7,-127.42,7.0,64,20,9.8,CA,2020-11-07 21:23:27
73,Te Anau,-45.42,167.72,7.25,69,79,3.26,NZ,2020-11-07 21:23:27
74,Albany,42.6,-73.97,19.0,48,75,3.1,US,2020-11-07 21:18:35
75,Arraial do Cabo,-22.97,-42.03,23.0,78,75,2.6,BR,2020-11-07 21:23:28
76,Derzhavīnsk,51.1,66.32,7.28,57,100,7.1,KZ,2020-11-07 21:23:28
77,Arys,42.43,68.8,19.0,14,0,5.0,KZ,2020-11-07 21:23:28
78,Srednekolymsk,67.45,153.68,-20.51,91,96,3.62,RU,2020-11-07 21:23:28
79,Khatanga,71.97,102.5,-20.19,87,9,5.7,RU,2020-11-07 21:23:28
80,Dikson,73.51,80.55,-19.58,89,87,5.15,RU,2020-11-07 21:23:29
81,Cape Town,-33.93,18.42,16.67,82,75,7.7,ZA,2020-11-07 21:15:00
82,Shahreza,32.03,51.88,7.08,52,100,2.11,IR,2020-11-07 21:23:29
83,Chui,-33.7,-53.46,18.82,78,12,4.74,UY,2020-11-07 21:23:15
84,Sechura,-5.56,-80.82,21.85,62,48,8.37,PE,2020-11-07 21:23:30
85,Puro,12.48,123.38,25.03,84,99,3.03,PH,2020-11-07 21:23:30
86,Ilulissat,69.22,-51.1,-11.0,56,28,3.1,GL,2020-11-07 21:23:30
87,Dingle,11.0,122.67,23.0,91,96,0.43,PH,2020-11-07 21:23:31
88,Bredasdorp,-34.53,20.04,17.0,55,0,7.2,ZA,2020-11-07 21:23:31
89,Upernavik,72.79,-56.15,-18.44,76,0,3.29,GL,2020-11-07 21:23:31
90,Ribeira Grande,38.52,-28.7,15.0,77,40,4.6,PT,2020-11-07 21:23:31
91,Flinders,-34.58,150.86,15.56,69,49,1.34,AU,2020-11-07 21:23:27
92,Qui Nhon,13.77,109.23,23.5,86,60,6.09,VN,2020-11-07 21:23:32
93,Castro,-24.79,-50.01,21.93,51,0,1.61,BR,2020-11-07 21:19:14
94,Bluff,-46.6,168.33,10.56,57,5,4.47,NZ,2020-11-07 21:23:32
95,George Town,5.41,100.34,26.0,88,40,1.55,MY,2020-11-07 21:23:32
96,Provideniya,64.38,-173.3,-1.8,94,20,2.31,RU,2020-11-07 21:23:33
97,Gōtsuchō,35.0,132.22,14.47,63,3,4.76,JP,2020-11-07 21:23:33
98,Bambous Virieux,-20.34,57.76,23.0,78,75,3.1,MU,2020-11-07 21:23:33
99,New Norfolk,-42.78,147.06,9.44,69,5,0.45,AU,2020-11-07 21:21:47
100,Mangalore,12.87,74.88,26.0,88,20,2.3,IN,2020-11-07 21:23:33
101,Airai,-8.93,125.41,17.12,56,90,1.0,TL,2020-11-07 21:23:33
102,Uray,60.12,64.78,1.79,98,100,2.04,RU,2020-11-07 21:23:33
103,Longyearbyen,78.22,15.64,-3.0,86,100,1.5,SJ,2020-11-07 21:23:33
104,Saskylakh,71.92,114.08,-22.55,89,0,3.21,RU,2020-11-07 21:23:34
105,Bubaque,11.28,-15.83,29.39,77,0,6.16,GW,2020-11-07 21:23:34
106,Santana,-0.06,-51.18,29.0,79,20,5.1,BR,2020-11-07 21:23:34
107,Yellowknife,62.46,-114.35,-11.11,85,75,2.1,CA,2020-11-07 21:22:03
108,Port Elizabeth,-33.92,25.57,17.0,93,1,2.6,ZA,2020-11-07 21:23:34
109,Dabakala,8.37,-4.43,26.29,61,0,1.64,CI,2020-11-07 21:23:34
110,Sīra,13.75,76.91,20.93,93,77,3.51,IN,2020-11-07 21:23:35
111,Yarmouth,41.71,-70.23,19.44,63,1,2.1,US,2020-11-07 21:23:35
112,Lebu,-37.62,-73.65,13.33,63,0,10.39,CL,2020-11-07 21:23:35
113,Ongandjera,-17.88,15.07,26.92,21,0,7.88,NA,2020-11-07 21:23:35
114,Iberia,29.95,-91.75,29.0,54,90,3.6,US,2020-11-07 21:20:25
115,Thompson,55.74,-97.86,-7.0,85,90,1.0,CA,2020-11-07 21:23:35
116,Cockburn Town,21.46,-71.14,24.0,88,90,5.1,TC,2020-11-07 21:23:36
117,Hay River,60.82,-115.8,-12.0,72,79,2.6,CA,2020-11-07 21:23:36
118,Nur,52.67,22.32,7.78,87,0,0.45,PL,2020-11-07 21:23:36
119,Darhan,49.49,105.92,-4.55,88,0,2.52,MN,2020-11-07 21:23:36
120,Bethel,41.37,-73.41,22.0,35,1,2.6,US,2020-11-07 21:23:36
121,Kholtoson,50.3,103.31,-6.7,90,12,1.27,RU,2020-11-07 21:23:36
122,Aranos,-24.13,19.12,25.84,17,0,10.32,NA,2020-11-07 21:21:17
123,Toktogul,41.87,72.94,10.51,38,100,0.63,KG,2020-11-07 21:23:36
124,Punta Arenas,-53.15,-70.92,16.0,51,40,13.9,CL,2020-11-07 21:21:44
125,Olafsvik,64.89,-23.71,4.93,70,83,11.72,IS,2020-11-07 21:23:37
126,Paamiut,61.99,-49.67,-1.83,90,100,6.47,GL,2020-11-07 21:23:37
127,San Julián,21.02,-102.17,22.98,29,94,1.36,MX,2020-11-07 21:23:37
128,Mahébourg,-20.41,57.7,23.0,78,75,3.1,MU,2020-11-07 21:23:30
129,Pemangkat,1.17,108.97,24.95,87,98,2.4,ID,2020-11-07 21:23:37
130,Belmonte,-15.86,-38.88,25.0,88,40,4.6,BR,2020-11-07 21:23:38
131,Iqaluit,63.75,-68.51,-12.0,78,75,2.1,CA,2020-11-07 21:23:38
132,Mabaruma,8.2,-59.78,27.63,80,97,2.01,GY,2020-11-07 21:23:38
133,Preobrazheniye,42.9,133.91,4.74,66,0,0.49,RU,2020-11-07 21:23:38
134,Hasaki,35.73,140.83,13.0,100,75,1.0,JP,2020-11-07 21:21:53
135,Buala,-8.14,159.59,28.34,72,5,1.68,SB,2020-11-07 21:23:34
136,Lomita,33.79,-118.32,16.11,55,75,7.7,US,2020-11-07 21:23:38
137,Waingapu,-9.66,120.26,26.37,73,89,1.34,ID,2020-11-07 21:23:38
138,Bull Savanna,17.89,-77.59,24.62,89,100,6.3,JM,2020-11-07 21:23:39
139,Barra de Tecoanapa,16.52,-98.75,29.28,68,89,3.83,MX,2020-11-07 21:21:14
140,Pevek,69.7,170.31,-8.44,96,100,1.06,RU,2020-11-07 21:23:39
141,Smirnykh,49.75,142.83,-3.43,90,100,2.47,RU,2020-11-07 21:23:39
142,Guerrero Negro,27.98,-114.06,21.37,62,42,8.91,MX,2020-11-07 21:23:39
143,Loukhi,66.08,33.04,1.86,82,0,7.05,RU,2020-11-07 21:23:40
144,Binga,-17.62,27.34,29.04,32,10,0.89,ZW,2020-11-07 21:23:40
145,Novozaimka,56.49,66.92,2.01,97,100,1.93,RU,2020-11-07 21:23:41
146,Nsanje,-16.92,35.26,29.18,32,78,0.71,MW,2020-11-07 21:23:41
147,Nioro,13.35,-15.75,28.92,46,0,2.18,GM,2020-11-07 21:23:41
148,Saint-Philippe,-21.36,55.77,23.0,83,0,3.1,RE,2020-11-07 21:23:41
149,Tuktoyaktuk,69.45,-133.04,-3.0,86,75,10.8,CA,2020-11-07 21:23:41
150,La Ronge,55.1,-105.28,-6.0,73,100,3.6,CA,2020-11-07 21:23:42
151,Atar,20.52,-13.05,30.58,18,99,4.33,MR,2020-11-07 21:23:42
152,Dengzhou,37.81,120.75,8.81,52,0,7.65,CN,2020-11-07 21:23:42
153,Vyyezdnoye,55.38,43.79,2.18,93,1,2.3,RU,2020-11-07 21:23:42
154,Ulverstone,-41.15,146.17,11.67,72,12,3.55,AU,2020-11-07 21:23:43
155,Apastovo,55.2,48.51,2.0,92,75,4.0,RU,2020-11-07 21:23:43
156,Terra Santa,-2.1,-56.49,32.89,49,23,1.65,BR,2020-11-07 21:23:43
157,Bambanglipuro,-7.95,110.28,25.6,80,66,0.49,ID,2020-11-07 21:23:43
158,Inhambane,-23.86,35.38,25.67,77,12,4.49,MZ,2020-11-07 21:23:43
159,Kahului,20.89,-156.47,31.0,52,40,11.3,US,2020-11-07 21:23:43
160,Clyde River,70.47,-68.59,-20.0,76,20,2.1,CA,2020-11-07 21:23:43
161,Weligama,5.97,80.42,24.9,88,0,2.3,LK,2020-11-07 21:23:44
162,Pingdu,36.78,119.95,5.0,80,0,2.0,CN,2020-11-07 21:23:44
163,Singapore,1.29,103.85,25.0,94,0,1.5,SG,2020-11-07 21:21:17
164,Letlhakane,-21.42,25.58,30.83,28,31,3.05,BW,2020-11-07 21:23:44
165,Talara,-4.58,-81.27,19.42,79,13,6.26,PE,2020-11-07 21:23:44
166,Mayen,50.33,7.22,7.78,81,30,3.1,DE,2020-11-07 21:23:45
167,Tual,-5.67,132.75,28.23,69,91,5.55,ID,2020-11-07 21:23:45
168,Butaritari,3.07,172.79,27.25,72,100,4.77,KI,2020-11-07 21:23:45
169,Sitārganj,28.93,79.7,16.44,52,0,1.13,IN,2020-11-07 21:23:46
170,Jérémie,18.65,-74.12,27.31,74,100,1.52,HT,2020-11-07 21:23:46
171,Vila Velha,-20.33,-40.29,25.0,83,90,3.1,BR,2020-11-07 21:23:46
172,Faya,18.39,42.45,16.0,62,0,0.83,SA,2020-11-07 21:23:46
173,Coquimbo,-29.95,-71.34,17.0,67,0,6.2,CL,2020-11-07 21:21:46
174,Majene,-3.54,118.97,25.31,84,84,2.05,ID,2020-11-07 21:23:47
175,Taungdwingyi,20.02,95.55,22.21,89,0,1.92,MM,2020-11-07 21:23:47
176,Kaeo,-35.1,173.78,21.11,72,31,2.68,NZ,2020-11-07 21:23:47
177,Dunedin,-45.87,170.5,10.56,58,97,8.49,NZ,2020-11-07 21:23:47
178,Demyansk,57.64,32.47,8.53,84,100,5.49,RU,2020-11-07 21:23:47
179,Hambantota,6.12,81.12,26.24,80,0,4.4,LK,2020-11-07 21:22:31
180,Saint-Augustin,51.23,-58.65,-0.08,89,0,6.25,CA,2020-11-07 21:21:58
181,Kununurra,-15.77,128.73,23.0,83,52,1.02,AU,2020-11-07 21:23:48
182,Jiazi,22.88,116.07,21.62,82,96,5.41,CN,2020-11-07 21:23:06
183,Fortuna,40.6,-124.16,13.33,54,1,7.7,US,2020-11-07 21:23:48
184,Texarkana,33.43,-94.05,24.0,57,40,2.1,US,2020-11-07 21:21:09
185,Butka,56.72,63.79,1.22,93,100,1.42,RU,2020-11-07 21:23:48
186,Tambo Grande,-4.93,-80.34,30.93,34,31,8.45,PE,2020-11-07 21:23:48
187,Lüderitz,-26.65,15.16,16.99,85,0,2.42,NA,2020-11-07 21:23:49
188,Laas,46.62,10.7,7.78,86,5,1.5,IT,2020-11-07 21:23:49
189,Cabrero,-37.03,-72.4,28.0,39,0,6.2,CL,2020-11-07 21:20:17
190,Kaitangata,-46.28,169.85,10.56,57,95,4.92,NZ,2020-11-07 21:22:28
191,Kibara,-2.15,33.45,22.0,78,40,3.45,TZ,2020-11-07 21:23:49
192,Mâncio Lima,-7.61,-72.9,31.0,70,20,2.1,BR,2020-11-07 21:23:49
193,Aykhal,66.0,111.5,-19.0,84,0,3.0,RU,2020-11-07 21:23:49
194,Mykhaylivka,47.27,35.22,6.0,93,100,2.0,UA,2020-11-07 21:23:49
195,Vila Franca do Campo,37.72,-25.43,15.0,72,20,3.6,PT,2020-11-07 21:21:40
196,Naze,28.37,129.48,23.0,94,75,7.2,JP,2020-11-07 21:23:50
197,Tessalit,20.2,1.01,24.52,19,97,5.59,ML,2020-11-07 21:23:50
198,Abalak,58.13,68.59,1.75,97,100,1.68,RU,2020-11-07 21:23:50
199,Piaçabuçu,-10.41,-36.43,25.7,84,37,5.93,BR,2020-11-07 21:21:54
200,Seddon,-37.81,144.89,12.22,71,0,4.1,AU,2020-11-07 21:23:50
201,Port Blair,11.67,92.75,27.2,80,0,3.29,IN,2020-11-07 21:22:09
202,Shevchenkove,49.7,37.17,6.0,93,14,2.0,UA,2020-11-07 21:23:50
203,Codrington,-38.27,141.97,8.08,86,4,2.47,AU,2020-11-07 21:21:43
204,Yārāda,17.65,83.27,26.0,83,40,1.0,IN,2020-11-07 21:23:51
205,Belaguntha,19.88,84.65,18.39,60,0,1.1,IN,2020-11-07 21:23:51
206,Gisborne,-38.65,178.0,23.33,54,15,5.36,NZ,2020-11-07 21:23:51
207,Asău,46.43,26.4,5.56,96,0,1.41,RO,2020-11-07 21:23:51
208,Luanda,-8.84,13.23,26.0,83,75,3.6,AO,2020-11-07 21:23:51
209,Diffa,13.32,12.61,23.42,27,0,3.88,NE,2020-11-07 21:23:51
210,Eureka,40.8,-124.16,12.22,60,0,3.58,US,2020-11-07 21:23:52
211,Muhafazat Lahij,13.17,44.58,21.85,78,8,2.38,YE,2020-11-07 21:23:52
212,El Dorado,38.77,-120.52,11.11,57,100,0.45,US,2020-11-07 21:23:52
213,Mossamedes,-15.2,12.15,21.33,67,28,4.59,AO,2020-11-07 21:23:28
214,Tilichiki,60.47,166.1,-7.97,94,0,3.44,RU,2020-11-07 21:23:52
215,Hualmay,-11.1,-77.61,19.0,70,22,4.82,PE,2020-11-07 21:23:52
216,Norman Wells,65.28,-126.83,-3.0,100,90,2.6,CA,2020-11-07 21:23:52
217,Grado,43.39,-6.07,14.44,82,0,1.0,ES,2020-11-07 21:23:52
218,Esperance,-33.87,121.9,13.0,100,75,3.1,AU,2020-11-07 21:22:15
219,Ponta do Sol,32.67,-17.1,18.0,72,20,2.1,PT,2020-11-07 21:21:44
220,Kokopo,-4.35,152.26,25.95,80,66,1.37,PG,2020-11-07 21:23:53
221,Jacksonville,30.33,-81.66,27.0,65,75,6.2,US,2020-11-07 21:19:33
222,Port Hawkesbury,45.62,-61.35,6.67,75,40,2.1,CA,2020-11-07 21:22:45
223,Praia,14.92,-23.51,26.0,78,0,7.2,CV,2020-11-07 21:23:54
224,Lompoc,34.64,-120.46,14.0,62,40,6.7,US,2020-11-07 21:19:19
225,Burlatskoye,45.06,43.63,9.61,69,100,9.49,RU,2020-11-07 21:23:54
226,Avera,33.19,-82.53,27.0,54,40,4.1,US,2020-11-07 21:23:40
227,Ocean City,39.28,-74.57,23.0,35,1,2.6,US,2020-11-07 21:21:23
228,Vao,-22.67,167.48,23.11,74,78,5.16,NC,2020-11-07 21:23:55
229,Deputatsky,69.3,139.9,-21.45,92,96,1.52,RU,2020-11-07 21:23:55
230,Aklavik,68.22,-135.01,1.0,59,40,3.1,CA,2020-11-07 21:21:02
231,Puerto Ayora,-0.74,-90.35,26.0,65,20,10.3,EC,2020-11-07 21:21:53
232,Yanam,16.73,82.22,24.59,80,0,2.29,IN,2020-11-07 21:23:57
233,Bundaberg,-24.85,152.35,25.0,50,75,8.7,AU,2020-11-07 21:23:57
234,Newport,51.59,-3.0,11.11,94,99,0.45,GB,2020-11-07 21:23:57
235,Kapaa,22.08,-159.32,28.0,78,40,6.2,US,2020-11-07 21:21:46
236,Portland,45.52,-122.68,9.0,81,90,4.1,US,2020-11-07 21:21:49
237,Hong Kong,22.29,114.16,25.0,47,9,4.47,HK,2020-11-07 21:19:36
238,Saint George,37.1,-113.58,16.0,18,1,9.3,US,2020-11-07 21:23:58
239,Haines Junction,60.75,-137.51,-19.0,70,98,0.3,CA,2020-11-07 21:23:58
240,Talcahuano,-36.72,-73.12,18.0,59,0,9.8,CL,2020-11-07 21:23:58
241,Hohhot,40.81,111.65,-7.0,62,0,3.0,CN,2020-11-07 21:23:58
242,Mount Isa,-20.73,139.5,26.0,12,18,3.6,AU,2020-11-07 21:23:58
243,Kiama,-34.68,150.87,15.56,69,47,1.34,AU,2020-11-07 21:23:58
244,Hofn,64.25,-15.21,6.11,82,100,8.46,IS,2020-11-07 21:22:12
245,Kang,-23.68,22.79,28.72,17,0,1.36,BW,2020-11-07 21:23:59
246,Atuona,-9.8,-139.03,25.48,70,66,5.99,PF,2020-11-07 21:23:59
247,Qaanaaq,77.48,-69.36,-25.17,71,0,3.75,GL,2020-11-07 21:23:59
248,Chumikan,54.72,135.31,-12.16,88,100,5.45,RU,2020-11-07 21:23:59
249,Usinsk,65.99,57.53,-0.77,99,100,5.66,RU,2020-11-07 21:23:59
250,Irpa Irpa,-17.72,-66.27,24.0,25,40,4.6,BO,2020-11-07 21:23:59
251,Makakilo City,21.35,-158.09,29.0,66,75,3.6,US,2020-11-07 21:21:20
252,Mehamn,71.04,27.85,3.58,75,73,11.01,NO,2020-11-07 21:22:02
253,Mahabalipuram,12.63,80.17,25.0,94,75,1.0,IN,2020-11-07 21:24:00
254,Marawi,8.0,124.29,23.33,89,100,1.79,PH,2020-11-07 21:24:00
255,Krasnoarmeysk,51.02,45.7,2.59,100,53,1.14,RU,2020-11-07 21:24:00
256,Gravelbourg,49.88,-106.55,-1.0,86,100,4.1,CA,2020-11-07 21:24:00
257,Nome,64.5,-165.41,2.22,93,40,3.6,US,2020-11-07 21:24:00
258,Lima,-12.04,-77.03,20.0,68,75,6.2,PE,2020-11-07 21:22:30
259,Sitka,57.05,-135.33,3.0,74,40,3.6,US,2020-11-07 21:24:00
260,Umluj,25.02,37.27,22.25,66,23,2.75,SA,2020-11-07 21:24:01
261,Turaif,31.67,38.66,16.0,67,0,8.2,SA,2020-11-07 21:24:01
262,East London,-33.02,27.91,20.76,81,0,4.88,ZA,2020-11-07 21:21:05
263,Ahipara,-35.17,173.17,18.27,71,31,5.85,NZ,2020-11-07 21:24:01
264,Kawalu,-7.38,108.21,21.16,91,33,0.36,ID,2020-11-07 21:24:02
265,Taseyevo,57.22,94.9,3.66,95,100,2.21,RU,2020-11-07 21:24:02
266,Shenkursk,62.11,42.9,5.87,87,100,5.14,RU,2020-11-07 21:24:02
267,Marapanim,-0.72,-47.7,27.32,76,85,3.27,BR,2020-11-07 21:24:02
268,Wajima,37.4,136.9,15.73,61,10,6.73,JP,2020-11-07 21:24:03
269,The Valley,18.22,-63.06,28.0,78,40,4.6,AI,2020-11-07 21:24:03
270,Altay,47.87,88.12,1.75,78,67,1.57,CN,2020-11-07 21:22:31
271,Yumen,40.28,97.2,-2.48,84,42,0.29,CN,2020-11-07 21:24:03
272,Beloha,-25.17,45.05,21.69,73,0,0.9,MG,2020-11-07 21:21:50
273,Batagay-Alyta,67.8,130.41,-25.01,81,85,0.46,RU,2020-11-07 21:22:55
274,Linguère,15.4,-15.12,33.82,21,0,3.96,SN,2020-11-07 21:24:03
275,Sühbaatar,50.23,106.21,-5.84,92,44,1.33,MN,2020-11-07 21:24:03
276,Rundu,-17.93,19.77,27.48,31,1,2.03,NA,2020-11-07 21:24:04
277,Salina,38.84,-97.61,24.0,47,1,9.8,US,2020-11-07 21:21:00
278,Tura,25.52,90.22,18.02,87,0,2.1,IN,2020-11-07 21:24:04
279,Caucayá,-0.19,-74.78,30.12,63,99,1.42,CO,2020-11-07 21:23:10
280,Kavaratti,10.57,72.64,28.32,75,0,3.56,IN,2020-11-07 21:24:05
281,Olinda,-8.01,-34.86,28.0,74,75,6.2,BR,2020-11-07 21:24:05
282,Koryukivka,51.77,32.25,6.42,96,2,3.37,UA,2020-11-07 21:24:05
283,Alexandria,31.22,29.96,18.0,88,40,1.0,EG,2020-11-07 21:22:45
284,Puerto Colombia,10.99,-74.95,28.0,78,75,1.5,CO,2020-11-07 21:24:05
285,Khovd,48.01,91.64,-2.52,90,65,0.41,MN,2020-11-07 21:23:51
286,Marck,50.95,1.94,10.0,94,50,0.89,FR,2020-11-07 21:24:05
287,Laguna,38.42,-121.42,16.11,38,1,3.1,US,2020-11-07 21:24:06
288,Río Gallegos,-51.62,-69.22,18.0,36,40,10.3,AR,2020-11-07 21:24:06
289,Polovinnoye,54.79,65.99,4.32,96,100,3.64,RU,2020-11-07 21:24:06
290,Praia da Vitória,38.73,-27.07,16.0,77,75,7.52,PT,2020-11-07 21:24:06
291,Grand Gaube,-20.01,57.66,21.67,77,30,1.34,MU,2020-11-07 21:24:06
292,Goālpāra,26.17,90.62,18.25,82,0,1.88,IN,2020-11-07 21:24:07
293,Doha,25.29,51.53,28.33,69,0,1.0,QA,2020-11-07 21:21:21
294,Quatre Cocos,-20.21,57.76,23.0,78,75,3.1,MU,2020-11-07 21:24:07
295,Vilhena,-12.74,-60.15,28.0,65,0,3.6,BR,2020-11-07 21:24:07
296,Necochea,-38.55,-58.74,15.56,82,0,4.02,AR,2020-11-07 21:24:07
297,Baykalovo,57.4,63.77,1.51,94,99,2.1,RU,2020-11-07 21:24:07
298,Grindavik,63.84,-22.43,5.0,80,75,8.7,IS,2020-11-07 21:23:13
299,Tobol,52.68,62.58,4.71,88,100,3.99,KZ,2020-11-07 21:24:08
300,Panjakent,39.5,67.61,12.0,32,35,1.0,TJ,2020-11-07 21:24:08
301,Saint-Joseph,-21.37,55.62,22.0,83,0,3.1,RE,2020-11-07 21:24:08
302,Margate,51.38,1.39,12.22,91,95,0.89,GB,2020-11-07 21:21:59
303,Kidal,18.44,1.41,24.47,18,1,5.28,ML,2020-11-07 21:24:09
304,Saint-Pierre,-21.34,55.48,22.0,83,0,3.1,RE,2020-11-07 21:24:09
305,Boddam,57.47,-1.78,7.78,93,75,1.0,GB,2020-11-07 21:24:09
306,Tuatapere,-46.13,167.68,10.56,57,43,4.47,NZ,2020-11-07 21:24:09
307,Kattivākkam,13.22,80.32,25.0,94,75,1.0,IN,2020-11-07 21:24:09
308,Kavieng,-2.57,150.8,28.42,68,44,3.36,PG,2020-11-07 21:24:10
309,Inta,66.03,60.17,-1.39,98,100,4.23,RU,2020-11-07 21:24:11
310,Bonavista,48.65,-53.11,5.0,82,89,2.1,CA,2020-11-07 21:24:11
311,Sept-Îles,50.2,-66.38,0.0,87,16,3.1,CA,2020-11-07 21:24:11
312,Geraldton,-28.77,114.6,21.0,73,90,3.1,AU,2020-11-07 21:24:11
313,Kieta,-6.22,155.63,27.47,74,3,0.48,PG,2020-11-07 21:23:26
314,San Cristobal,7.77,-72.22,29.0,70,40,5.1,VE,2020-11-07 21:22:13
315,Black Diamond,47.31,-122.0,6.11,95,100,2.19,US,2020-11-07 21:24:12
316,Verkhnyaya Inta,65.98,60.31,-1.7,98,100,3.63,RU,2020-11-07 21:24:12
317,Zhigansk,66.77,123.37,-26.21,89,90,2.1,RU,2020-11-07 21:24:13
318,Presidencia Roque Sáenz Peña,-26.79,-60.44,32.51,29,49,2.4,AR,2020-11-07 21:24:13
319,Bayan,46.08,127.4,-0.56,63,51,7.34,CN,2020-11-07 21:24:13
320,Maceió,-9.67,-35.74,27.0,78,75,5.7,BR,2020-11-07 21:21:48
321,Petropavlovsk-Kamchatskiy,53.05,158.65,-7.0,85,46,5.0,RU,2020-11-07 21:24:13
322,Isangel,-19.55,169.27,26.87,74,2,3.93,VU,2020-11-07 21:22:09
323,Palauig,15.44,119.9,25.89,76,100,3.22,PH,2020-11-07 21:24:13
324,Tsabong,-26.02,22.4,28.37,20,0,1.39,BW,2020-11-07 21:24:14
325,Seymchan,62.88,152.43,-18.65,89,100,2.74,RU,2020-11-07 21:24:14
326,Mendi,-6.18,143.65,13.52,99,100,1.03,PG,2020-11-07 21:24:15
327,Saravan,39.72,45.65,6.0,93,20,2.1,AM,2020-11-07 21:24:15
328,Khuchni,41.95,47.95,5.52,84,78,1.04,RU,2020-11-07 21:24:15
329,Khartoum,15.55,32.53,27.0,21,0,3.1,SD,2020-11-07 21:22:36
330,Vuyyūru,16.37,80.85,23.11,92,0,2.15,IN,2020-11-07 21:24:15
331,Falam,22.92,93.68,11.82,100,1,0.34,MM,2020-11-07 21:21:07
332,Genhe,50.78,121.52,-14.93,92,14,1.56,CN,2020-11-07 21:24:16
333,Lahaina,20.88,-156.68,31.0,74,75,5.7,US,2020-11-07 21:24:16
334,Tres Picos,15.87,-93.53,30.57,57,0,2.07,MX,2020-11-07 21:24:16
335,Fort Frances,48.6,-93.4,7.22,81,90,3.1,CA,2020-11-07 21:24:16
336,Casa Nova,-9.42,-41.13,33.0,38,20,5.1,BR,2020-11-07 21:21:09
337,Kutum,14.2,24.67,19.82,26,5,4.76,SD,2020-11-07 21:24:17
338,Mercedes,-34.65,-59.43,26.67,41,34,4.02,AR,2020-11-07 21:24:17
339,Fukuechō,32.69,128.84,18.78,51,10,9.49,JP,2020-11-07 21:24:17
340,Narsaq,60.92,-46.05,-2.0,74,100,3.21,GL,2020-11-07 21:22:48
341,Aripuanã,-9.17,-60.63,33.09,44,76,1.19,BR,2020-11-07 21:24:17
342,Gizo Government Station,-8.1,156.84,28.51,74,29,3.17,SB,2020-11-07 21:24:18
343,Mnogovershinnyy,53.94,139.92,-8.73,97,97,2.07,RU,2020-11-07 21:24:18
344,Cayenne,4.93,-52.33,26.0,100,75,0.5,GF,2020-11-07 21:24:18
345,Miramar,25.99,-80.23,26.67,94,75,5.7,US,2020-11-07 21:24:18
346,Banda Aceh,5.56,95.32,25.81,79,99,1.06,ID,2020-11-07 21:22:12
347,Tieli,46.95,128.05,-3.79,98,100,4.11,CN,2020-11-07 21:24:19
348,Lagoa,39.05,-27.98,16.16,73,0,8.85,PT,2020-11-07 21:24:19
349,Schruns,47.07,9.95,7.78,65,0,2.24,AT,2020-11-07 21:24:19
350,Houma,29.6,-90.72,22.22,94,90,5.1,US,2020-11-07 21:22:41
351,Saýat,38.78,63.88,11.0,25,0,4.1,TM,2020-11-07 21:24:19
352,Acaraú,-2.89,-40.12,27.36,72,55,8.17,BR,2020-11-07 21:24:19
353,Tateyama,34.98,139.87,17.22,72,75,1.5,JP,2020-11-07 21:24:20
354,Labuhan,-6.88,112.21,25.83,80,0,4.04,ID,2020-11-07 21:24:20
355,Leningradskiy,69.38,178.42,-6.86,96,100,5.09,RU,2020-11-07 21:24:04
356,Águia Branca,-18.98,-40.74,23.17,90,20,2.92,BR,2020-11-07 21:24:20
357,Roswell,34.02,-84.36,22.22,68,75,5.1,US,2020-11-07 21:19:49
358,Gēdo,9.02,37.45,11.21,75,100,1.26,ET,2020-11-07 21:24:20
359,Bako,5.78,36.57,17.82,92,98,1.12,ET,2020-11-07 21:24:21
360,Severo-Kuril'sk,50.68,156.12,1.38,83,3,0.86,RU,2020-11-07 21:24:21
361,Mil'kovo,54.72,158.62,-5.1,89,11,0.82,RU,2020-11-07 21:24:21
362,Talnakh,69.49,88.4,-8.0,85,75,10.0,RU,2020-11-07 21:24:08
363,Cabo San Lucas,22.89,-109.91,28.33,65,40,3.6,MX,2020-11-07 21:22:28
364,Mtimbira,-8.78,36.35,25.42,69,0,2.78,TZ,2020-11-07 21:24:22
365,Lavrentiya,65.58,-171.0,-1.84,96,53,4.47,RU,2020-11-07 21:24:23
366,Paita,-5.09,-81.11,19.58,75,15,7.67,PE,2020-11-07 21:24:23
367,Calbuco,-41.77,-73.13,15.0,54,0,6.7,CL,2020-11-07 21:24:23
368,Hurghada,27.26,33.81,23.0,46,0,2.6,EG,2020-11-07 21:24:23
369,Banjar,-8.19,114.97,24.21,74,9,2.71,ID,2020-11-07 21:24:24
370,Keti Bandar,24.14,67.45,25.12,54,0,2.88,PK,2020-11-07 21:24:25
371,Aktau,43.65,51.2,9.0,76,75,6.0,KZ,2020-11-07 21:24:25
372,Kruisfontein,-34.0,24.73,16.11,81,0,2.12,ZA,2020-11-07 21:24:25
373,Fairbanks,64.84,-147.72,-2.78,79,90,2.1,US,2020-11-07 21:24:25
374,Kungurtug,50.6,97.52,-6.13,93,70,0.52,RU,2020-11-07 21:24:26
375,Micheweni,-4.97,39.83,26.07,81,94,4.66,TZ,2020-11-07 21:24:26
376,Turka,49.15,23.03,3.89,92,5,7.15,UA,2020-11-07 21:24:26
377,Kochi,9.94,76.26,26.0,94,40,2.1,IN,2020-11-07 21:24:27
378,Vestmannaeyjar,63.44,-20.27,7.46,74,100,8.93,IS,2020-11-07 21:24:27
379,Kulhudhuffushi,6.62,73.07,28.59,77,100,6.21,MV,2020-11-07 21:24:27
380,Sibolga,1.74,98.78,25.0,80,100,1.95,ID,2020-11-07 21:24:28
381,Constitución,-35.33,-72.42,18.13,56,0,7.32,CL,2020-11-07 21:24:28
382,Safi,32.3,-9.24,19.0,77,27,1.81,MA,2020-11-07 21:24:21
383,Smithers,54.78,-127.17,1.0,50,5,5.1,CA,2020-11-07 21:24:28
384,Kismayo,-0.36,42.55,26.75,79,100,4.74,SO,2020-11-07 21:24:28
385,Waipawa,-41.41,175.52,12.0,93,99,14.9,NZ,2020-11-07 21:23:06
386,Qaqortoq,60.72,-46.03,-2.0,74,100,3.99,GL,2020-11-07 21:24:28
387,Trelew,-43.25,-65.31,21.84,31,85,10.85,AR,2020-11-07 21:24:29
388,Atherton,53.52,-2.49,10.56,72,89,0.45,GB,2020-11-07 21:22:46
389,Adrar,20.5,-10.07,29.89,17,83,4.49,MR,2020-11-07 21:22:35
390,Boone,39.03,-92.33,23.33,39,0,4.47,US,2020-11-07 21:24:29
391,Tautira,-17.73,-149.15,28.0,69,75,3.6,PF,2020-11-07 21:22:29
392,Buenos Aires,-34.61,-58.38,24.44,60,0,6.2,AR,2020-11-07 21:24:08
393,Bria,6.54,21.99,22.4,84,98,0.96,CF,2020-11-07 21:24:30
394,Carovigno,40.71,17.66,17.0,77,0,4.6,IT,2020-11-07 21:24:30
395,Oyama,36.3,139.8,17.22,93,75,1.0,JP,2020-11-07 21:24:30
396,Filimonovo,56.2,95.46,3.17,93,100,4.89,RU,2020-11-07 21:24:30
397,Jacqueville,5.21,-4.41,28.0,83,20,3.1,CI,2020-11-07 21:24:31
398,Homer,59.64,-151.55,2.22,86,90,1.5,US,2020-11-07 21:24:31
399,Miles City,46.41,-105.84,8.0,65,1,3.6,US,2020-11-07 21:24:32
400,Maniitsoq,65.42,-52.9,-5.28,87,100,7.27,GL,2020-11-07 21:24:32
401,Nanortalik,60.14,-45.24,0.26,90,100,3.37,GL,2020-11-07 21:23:35
402,Balaipungut,1.05,101.28,23.1,97,100,2.42,ID,2020-11-07 21:22:22
403,Coatzacoalcos,18.15,-94.42,28.0,74,40,6.7,MX,2020-11-07 21:24:32
404,Cap-aux-Meules,47.38,-61.86,4.0,69,48,11.3,CA,2020-11-07 21:24:32
405,Bilibino,68.05,166.44,-17.56,90,100,0.92,RU,2020-11-07 21:24:32
406,Acapulco de Juárez,16.86,-99.89,31.0,70,5,2.1,MX,2020-11-07 21:19:44
407,Kloulklubed,7.04,134.26,25.0,94,90,4.6,PW,2020-11-07 21:24:33
408,Bathsheba,13.22,-59.52,28.0,78,40,7.2,BB,2020-11-07 21:24:33
409,Marsá Maţrūḩ,31.35,27.25,20.0,72,96,3.1,EG,2020-11-07 21:24:33
410,Praia,14.92,-23.51,26.0,78,0,7.2,CV,2020-11-07 21:23:54
411,Xiongzhou,25.12,114.3,16.0,73,0,1.18,CN,2020-11-07 21:24:34
412,Muros,42.78,-9.06,16.11,89,16,5.81,ES,2020-11-07 21:23:19
413,Barentu,15.11,37.59,22.98,31,0,1.38,ER,2020-11-07 21:24:34
414,Malinyi,-8.93,36.13,25.87,64,0,2.15,TZ,2020-11-07 21:24:34
415,La Esperanza,14.87,-91.57,21.67,72,75,2.1,GT,2020-11-07 21:24:34
416,Gamboula,4.12,15.14,20.71,93,100,0.54,CF,2020-11-07 21:24:34
417,Queimadas,-10.98,-39.63,27.18,65,57,5.55,BR,2020-11-07 21:24:35
418,Nishihara,26.18,127.76,24.0,94,40,2.1,JP,2020-11-07 21:24:35
419,Ulaangom,49.98,92.07,-4.21,94,0,1.05,MN,2020-11-07 21:24:35
420,Coruripe,-10.13,-36.18,25.6,83,24,5.97,BR,2020-11-07 21:24:35
421,Awjilah,29.11,21.29,17.84,72,0,5.78,LY,2020-11-07 21:24:35
422,Egvekinot,66.32,-179.17,-5.8,98,100,2.16,RU,2020-11-07 21:24:36
423,Amoy,24.48,118.08,21.0,83,90,5.0,CN,2020-11-07 21:24:36
424,Itoman,26.12,127.67,24.0,94,40,2.1,JP,2020-11-07 21:24:36
425,Gambēla,8.25,34.58,23.38,83,80,1.35,ET,2020-11-07 21:24:36
426,Mackenzie,55.3,-123.17,-1.0,58,75,3.6,CA,2020-11-07 21:24:36
427,Chesma,53.81,60.65,2.13,95,100,4.66,RU,2020-11-07 21:24:36
428,Stornoway,58.21,-6.39,6.11,93,0,2.6,GB,2020-11-07 21:24:36
429,Loa Janan,-0.58,117.09,23.25,97,100,0.81,ID,2020-11-07 21:24:36
430,Hervey Bay,-25.3,152.85,23.33,62,3,1.34,AU,2020-11-07 21:24:37
431,Arlit,18.74,7.39,24.6,23,0,5.84,NE,2020-11-07 21:24:37
432,Abhā,18.22,42.51,16.0,62,0,0.82,SA,2020-11-07 21:24:37
433,Rosario,-32.95,-60.64,30.0,37,0,6.2,AR,2020-11-07 21:24:37
434,Zabaykal'sk,49.63,117.32,-13.01,91,0,4.61,RU,2020-11-07 21:24:37
435,Kailua,21.4,-157.74,28.0,69,75,3.6,US,2020-11-07 21:23:38
436,Shirokiy,49.76,129.52,-5.63,97,99,3.58,RU,2020-11-07 21:24:37
437,Tsogni,-2.79,10.1,24.51,94,100,2.7,GA,2020-11-07 21:24:38
438,Penzance,50.12,-5.54,13.0,100,100,6.2,GB,2020-11-07 21:24:38
439,Bridlington,54.08,-0.19,6.11,100,90,1.0,GB,2020-11-07 21:24:38
440,Fort Nelson,58.81,-122.7,-9.0,78,75,1.88,CA,2020-11-07 21:24:38
441,João Pessoa,-7.12,-34.86,27.0,78,40,6.2,BR,2020-11-07 21:24:38
442,Ust-Kuyga,70.02,135.6,-30.58,85,100,2.11,RU,2020-11-07 21:22:29
443,Faanui,-16.48,-151.75,25.98,79,59,5.68,PF,2020-11-07 21:21:57
444,Beringovskiy,63.05,179.32,-1.39,89,87,2.15,RU,2020-11-07 21:22:42
445,Maxixe,-23.86,35.35,25.45,76,11,4.1,MZ,2020-11-07 21:24:38
446,Vardø,70.37,31.11,4.36,73,95,13.9,NO,2020-11-07 21:24:39
447,Newala,-10.94,39.28,20.43,94,77,4.18,TZ,2020-11-07 21:24:39
448,Sola,-13.88,167.55,27.53,82,50,6.67,VU,2020-11-07 21:22:56
449,Port Hedland,-20.32,118.57,24.0,88,0,4.1,AU,2020-11-07 21:22:22
450,Ouadda,8.08,22.4,21.53,60,4,0.6,CF,2020-11-07 21:24:39
451,Yangi Marg`ilon,40.43,71.72,9.0,48,77,3.1,UZ,2020-11-07 21:24:39
452,Berlevåg,70.86,29.09,3.8,75,85,11.28,NO,2020-11-07 21:24:39
453,Nicoya,10.15,-85.45,26.0,94,75,3.1,CR,2020-11-07 21:24:39
454,Rosarito,32.33,-117.03,18.0,55,75,7.7,MX,2020-11-07 21:24:40
455,Arrondissement de Saint-Denis,48.92,2.33,14.0,87,0,2.1,FR,2020-11-07 21:24:40
456,Tumarbong,10.38,119.46,25.35,83,100,3.1,PH,2020-11-07 21:24:40
457,Chiang Mai,18.75,99.0,25.0,83,75,1.0,TH,2020-11-07 21:24:40
458,Jalu,29.03,21.55,17.97,69,0,5.76,LY,2020-11-07 21:23:54
459,Buchanan,5.88,-10.05,25.0,100,20,3.0,LR,2020-11-07 21:23:53
460,Wanlaweyn,2.62,44.89,25.49,83,91,3.08,SO,2020-11-07 21:24:40
461,Sabang,5.89,95.32,26.8,76,99,1.29,ID,2020-11-07 21:24:40
462,Shimoda,34.67,138.95,15.0,92,95,7.73,JP,2020-11-07 21:24:41
463,Athabasca,54.72,-113.29,-5.0,92,100,4.6,CA,2020-11-07 21:24:41
464,Vostok,46.49,135.88,-6.31,99,96,1.11,RU,2020-11-07 21:24:41
465,Eberswalde,52.83,13.82,5.0,78,0,1.79,DE,2020-11-07 21:24:41
466,Takoradze,4.88,-1.76,26.14,86,99,4.06,GH,2020-11-07 21:24:41
467,Gao,16.64,1.64,26.35,16,0,5.96,ML,2020-11-07 21:24:41
468,Udachny,66.42,112.4,-19.0,84,0,2.0,RU,2020-11-07 21:24:41
469,Boguchany,58.38,97.45,2.44,93,100,2.73,RU,2020-11-07 21:24:42
470,Pisco,-13.7,-76.22,19.0,82,90,3.1,PE,2020-11-07 21:22:54
471,Corpus Christi,27.8,-97.4,27.0,61,20,6.7,US,2020-11-07 21:24:42
472,Touros,-5.2,-35.46,27.0,78,40,4.1,BR,2020-11-07 21:24:42
473,Wasilla,61.58,-149.44,-6.0,92,90,1.5,US,2020-11-07 21:24:42
474,Walvis Bay,-22.96,14.51,15.56,87,0,1.0,NA,2020-11-07 21:24:42
475,Yecla,38.61,-1.11,18.89,56,0,1.99,ES,2020-11-07 21:24:42
476,Karratha,-20.74,116.85,21.09,67,0,4.43,AU,2020-11-07 21:24:42
477,Meadow Lake,34.8,-106.54,21.67,21,75,8.7,US,2020-11-07 21:24:43
478,Shambu,9.57,37.1,11.37,97,100,0.39,ET,2020-11-07 21:24:43
479,Hobyo,5.35,48.53,26.47,78,47,4.64,SO,2020-11-07 21:24:43
480,Ayagoz,47.97,80.44,0.65,85,21,0.71,KZ,2020-11-07 21:24:43
481,Izumo,35.37,132.77,13.0,82,75,3.6,JP,2020-11-07 21:24:43
482,Sarangani,5.4,125.46,27.8,76,100,2.52,PH,2020-11-07 21:24:43
483,Evensk,61.95,159.23,-10.66,89,94,4.34,RU,2020-11-07 21:24:43
484,Wewak,-3.55,143.63,26.46,84,100,3.85,PG,2020-11-07 21:24:43
485,Meiningen,50.57,10.42,4.44,85,0,1.48,DE,2020-11-07 21:24:43
486,Inuvik,68.35,-133.72,1.0,50,0,1.0,CA,2020-11-07 21:19:44
487,Port Lincoln,-34.73,135.87,15.8,73,34,7.08,AU,2020-11-07 21:24:44
488,Xichang,27.9,102.26,12.81,68,98,1.1,CN,2020-11-07 21:24:44
489,Vanderhoof,54.02,-124.02,0.86,75,0,3.49,CA,2020-11-07 21:24:44
490,São João da Barra,-21.64,-41.05,23.0,78,75,4.1,BR,2020-11-07 21:24:44
491,Tondano,1.3,124.91,25.0,94,40,1.17,ID,2020-11-07 21:24:44
492,Chegdomyn,51.12,133.02,-7.94,92,100,0.83,RU,2020-11-07 21:24:44
493,Vila,42.03,-8.16,12.22,94,98,2.19,PT,2020-11-07 21:24:44
494,Port Antonio,18.18,-76.46,24.44,94,75,10.3,JM,2020-11-07 21:24:45
495,Puerto del Rosario,28.5,-13.86,20.0,82,20,2.1,ES,2020-11-07 21:24:45
496,Anzio,41.49,12.62,15.56,82,5,1.5,IT,2020-11-07 21:24:45
497,Mashhad,36.3,59.61,15.0,34,100,2.1,IR,2020-11-07 21:22:16
498,Bhisho,-32.85,27.44,18.66,54,0,2.59,ZA,2020-11-07 21:23:59
499,Brae,60.4,-1.35,7.0,100,43,0.29,GB,2020-11-07 21:24:45
500,Tripoli,32.88,13.19,20.8,64,37,3.43,LY,2020-11-07 21:24:45
501,San Quintín,30.48,-115.95,18.94,53,0,7.61,MX,2020-11-07 21:24:45
502,Cartaya,37.28,-7.15,16.11,10,19,25.93,ES,2020-11-07 21:24:46
503,Shagonar,51.53,92.8,0.3,92,0,1.11,RU,2020-11-07 21:24:46
504,Normandin,48.83,-72.53,4.0,69,100,2.6,CA,2020-11-07 21:24:46
505,Caravelas,-17.71,-39.25,24.71,84,0,2.6,BR,2020-11-07 21:24:46
506,Camrose,53.02,-112.84,-4.44,88,100,7.15,CA,2020-11-07 21:24:46
507,Brigantine,39.41,-74.36,23.0,35,1,2.6,US,2020-11-07 21:24:46
508,Nanzhang,31.78,111.84,13.89,45,0,1.57,CN,2020-11-07 21:24:46
509,San Andrés,12.58,-81.7,30.0,74,40,2.1,CO,2020-11-07 21:24:47
510,Synya,65.37,58.04,-1.08,98,100,3.61,RU,2020-11-07 21:24:47
511,Killam,52.78,-111.85,-1.0,92,100,5.1,CA,2020-11-07 21:24:47
512,Raudeberg,61.99,5.14,7.22,96,83,1.67,NO,2020-11-07 21:24:47
513,Sainte-Suzanne,-20.91,55.61,23.0,73,75,8.2,RE,2020-11-07 21:24:47
514,Gushikawa,26.35,127.87,23.0,94,1,2.6,JP,2020-11-07 21:24:47
515,Khilok,51.37,110.47,-11.43,93,49,1.46,RU,2020-11-07 21:24:47
516,Roald,62.58,6.13,7.22,93,90,2.1,NO,2020-11-07 21:22:53
517,Hamamatsu,34.7,137.73,18.33,74,87,3.13,JP,2020-11-07 21:24:48
518,Kohima,25.67,94.12,11.94,90,0,1.29,IN,2020-11-07 21:24:48
519,Mango,27.98,-82.31,28.0,61,75,4.1,US,2020-11-07 21:24:48
520,Andenes,69.31,16.12,3.0,69,100,11.8,NO,2020-11-07 21:24:48
521,Saint Simons,31.14,-81.39,25.0,83,75,6.7,US,2020-11-07 21:24:48
522,Camacha,33.08,-16.33,18.0,82,20,2.1,PT,2020-11-07 21:24:48
523,Sørland,67.67,12.69,4.37,71,100,6.83,NO,2020-11-07 21:24:48
524,Sturgeon Falls,46.36,-79.93,15.0,72,75,4.6,CA,2020-11-07 21:24:49
525,Ostroh,50.33,26.51,6.69,93,0,2.37,UA,2020-11-07 21:24:49
526,Palora,-1.7,-77.93,20.0,88,75,2.1,EC,2020-11-07 21:24:49
527,Los Llanos de Aridane,28.66,-17.92,20.0,64,20,3.6,ES,2020-11-07 21:24:49
528,Solnechnyy,50.72,136.63,-7.15,87,100,2.69,RU,2020-11-07 21:24:49
529,Aldan,58.6,125.39,-20.49,92,100,2.14,RU,2020-11-07 21:24:49
530,Katherine,-14.47,132.27,25.0,73,5,2.1,AU,2020-11-07 21:24:50
531,Nekhayevskiy,50.41,41.76,5.0,83,14,3.13,RU,2020-11-07 21:24:50
532,Casper,42.87,-106.31,18.33,34,1,12.9,US,2020-11-07 21:23:07
533,Kysyl-Syr,63.9,122.76,-23.49,89,81,1.96,RU,2020-11-07 21:24:50
534,Koumac,-20.57,164.28,25.2,68,2,4.95,NC,2020-11-07 21:24:50
535,Ugoofaaru,5.67,73.0,28.16,75,100,4.82,MV,2020-11-07 21:24:50
536,Whitehorse,60.72,-135.05,-16.0,84,40,2.1,CA,2020-11-07 21:22:20
537,Methven,-43.63,171.65,6.11,99,100,1.34,NZ,2020-11-07 21:24:51
538,Port-Cartier,50.03,-66.87,0.0,89,51,3.1,CA,2020-11-07 21:24:51
539,Nieuw Amsterdam,5.88,-55.08,27.0,88,40,3.1,SR,2020-11-07 21:24:51
540,Owensboro,37.77,-87.11,25.0,41,1,4.1,US,2020-11-07 21:24:51
541,Kaya,13.09,-1.08,27.29,20,0,3.72,BF,2020-11-07 21:24:52
542,Nhulunbuy,-12.23,136.77,27.0,83,40,4.09,AU,2020-11-07 21:24:52
543,Agirish,61.92,63.02,-1.58,99,44,2.79,RU,2020-11-07 21:24:52
544,Mata,40.68,-7.46,13.89,83,27,0.45,PT,2020-11-07 21:24:52
545,Mishan,45.55,131.88,-1.16,91,97,0.35,CN,2020-11-07 21:24:52
546,Sainte-Maxime,43.3,6.63,16.11,82,100,1.5,FR,2020-11-07 21:24:52
547,Lorengau,-2.02,147.27,27.75,69,23,3.4,PG,2020-11-07 21:21:37
548,Linxia Chengguanzhen,35.6,103.21,3.24,72,100,0.37,CN,2020-11-07 21:24:53
549,Tazovsky,67.47,78.7,-2.69,99,100,2.66,RU,2020-11-07 21:24:53
550,Zhangye,38.93,100.45,4.32,51,0,2.57,CN,2020-11-07 21:24:53
551,Guantánamo,20.14,-75.21,24.0,100,90,3.6,CU,2020-11-07 21:24:53
552,Ulladulla,-35.35,150.47,15.0,62,19,4.1,AU,2020-11-07 21:24:54
553,Katsuura,35.13,140.3,16.0,72,75,1.5,JP,2020-11-07 21:23:28
554,Cap Malheureux,-19.98,57.61,21.67,77,21,1.34,MU,2020-11-07 21:24:54
555,San Luis,-33.3,-66.34,28.73,25,62,3.67,AR,2020-11-07 21:21:15
556,Kargopol',61.51,38.95,7.32,79,100,6.44,RU,2020-11-07 21:24:55
557,Conceição do Araguaia,-8.26,-49.26,27.26,75,90,0.61,BR,2020-11-07 21:24:49
558,Griffith,41.53,-87.42,22.22,43,1,7.2,US,2020-11-07 21:21:58
559,Rāzampeta,14.18,79.17,22.97,90,3,0.9,IN,2020-11-07 21:24:56
560,Polunochnoye,60.87,60.42,-1.71,97,52,2.12,RU,2020-11-07 21:24:56
561,Yulara,-25.24,130.99,22.0,15,32,3.1,AU,2020-11-07 21:24:56
562,Port Macquarie,-31.43,152.92,17.78,57,49,0.89,AU,2020-11-07 21:24:57
563,Martil,35.62,-5.28,15.0,87,0,1.0,MA,2020-11-07 21:24:57
564,Saint-François,46.42,3.91,16.0,67,0,5.1,FR,2020-11-07 21:24:57
565,Pychas,56.5,52.44,0.0,90,57,1.79,RU,2020-11-07 21:24:57
566,Verāval,20.9,70.37,25.72,48,0,4.3,IN,2020-11-07 21:24:58
567,Suez,29.97,32.53,20.88,55,25,1.41,EG,2020-11-07 21:24:58
568,Cañete,-37.8,-73.4,16.56,52,0,5.17,CL,2020-11-07 21:24:58
569,Santiago del Estero,-27.8,-64.26,33.89,23,6,3.58,AR,2020-11-07 21:24:58
570,Ixtapa,20.7,-105.2,31.0,52,5,3.6,MX,2020-11-07 21:24:58
571,Örnsköldsvik,63.29,18.72,2.0,80,79,5.1,SE,2020-11-07 21:24:58
572,Vilyuysk,63.76,121.62,-23.51,90,80,1.97,RU,2020-11-07 21:24:59
